id,created,updated,email,password,first_name,last_name,gender,phone_number,address,national_identity,role,is_active
4481,2022-06-07T10:21:02.952Z,2022-08-26T00:45:55.259Z,Narciso_Dare86@yahoo.com,vWEy3TcveskmWcuk4uUMIlqOACXfwv6XkAJKWCCGo0wBoW6gfG,Ralph,Corwin-Beer,M,(543) 483-0194 x78956,"{'address': '684 Trace Manors', 'location': {'lat': 37.83735852005235, 'lng': 61.21006971841348}, 'placeId': 'ChIJrTLr-GyuEmsRBfy61i59si0', 'region': 'PK'}",1-488-964-5235 x4373,User,True
2344,2022-08-24T18:00:33.286Z,2022-11-06T00:46:10.633Z,Kamille_Shields43@yahoo.com,uizwy0jCpBhscplUMNWMZlrxXM0o17MfSU2tlms828ynTa5dLM,Louisa,Hirthe,M,1-224-872-8083 x7759,"{'address': '10478 Zechariah Prairie', 'location': {'lat': 34.513027260782934, 'lng': 75.29883307124692}, 'placeId': 'ChIJrTLr-GyuEmsRBfy61i59si0', 'region': 'PK'}",701.735.8371 x1791,User,True
2308,2022-06-11T21:34:24.046Z,2022-09-17T06:30:08.139Z,Coy_Kirlin14@yahoo.com,otGF04wggqXO9P9Gmrxw3zE0RXyRIa1OQOzTYaqIGgZPY4LXid,Johnpaul,Koss,F,270.373.4335 x895,"{'address': '5253 Elmer Passage', 'location': {'lat': 26.67471399032989, 'lng': 72.97968890693005}, 'placeId': 'ChIJrTLr-GyuEmsRBfy61i59si0', 'region': 'PK'}",1-800-884-7385 x9398,User,True
9968,2022-06-28T01:09:22.676Z,2023-01-09T23:35:59.543Z,Coy1@gmail.com,xCOFsZkEDFjyK2lV1OPV0BuCrQb73qy763nBtDURTUEDPaRdep,Carlie,Thiel,M,(305) 493-5244 x40007,"{'address': '627 Kay Light', 'location': {'lat': 23.22676257565109, 'lng': 68.0226556244778}, 'placeId': 'ChIJrTLr-GyuEmsRBfy61i59si0', 'region': 'PK'}",727-268-4038,User,True
2874,2022-09-30T17:42:17.344Z,2023-03-27T10:37:35.374Z,Eulah.Bernier3@yahoo.com,gEg2Tlj2xKSb4Rumv3KF7DWn4c1FjpcH5sT4uV4m8JtnINMcAB,Burnice,Kub,M,1-544-349-5801 x98064,"{'address': '80796 MacGyver Lakes', 'location': {'lat': 15.106643140881266, 'lng': 62.97671373513003}, 'placeId': 'ChIJrTLr-GyuEmsRBfy61i59si0', 'region': 'PK'}",295.504.8810 x63075,User,True
6598,2022-12-30T03:05:27.022Z,2022-08-12T09:00:20.867Z,Carli6@yahoo.com,fyuXi3W2dSDpsMObesxOqUdsNv6IjknELUMQzxP3VLq0NSUIsa,Nellie,Reinger,F,991.740.3503,"{'address': '50410 Cremin Extension', 'location': {'lat': 25.37761993327233, 'lng': 65.95173619970035}, 'placeId': 'ChIJrTLr-GyuEmsRBfy61i59si0', 'region': 'PK'}",346-871-1356 x7719,User,True
4404,2023-03-20T06:51:19.419Z,2022-10-16T01:52:56.875Z,Aniya.Harris25@hotmail.com,13M6ZSAv7jPeTeLepA0PBwYYev49A5PsT8jaoiCCzM9MdqxoIX,Trey,Hermiston,M,(462) 617-7082 x03575,"{'address': '75292 Earlene Union', 'location': {'lat': 20.816752450682387, 'lng': 74.35004023317276}, 'placeId': 'ChIJrTLr-GyuEmsRBfy61i59si0', 'region': 'PK'}",676.471.1391 x766,User,True
1444,2023-03-31T13:05:14.463Z,2023-03-02T11:47:03.609Z,Joaquin_Abernathy28@hotmail.com,PjpsJfS1Gu9YBBvSgzzLleAqWIz57zUkkdNQaE5eoL8ZopTNX6,Novella,Williamson,M,395.245.7236 x188,"{'address': '361 Larson Prairie', 'location': {'lat': 24.670211916430944, 'lng': 57.85636615736132}, 'placeId': 'ChIJrTLr-GyuEmsRBfy61i59si0', 'region': 'PK'}",725.387.1427 x8106,User,True
3118,2023-04-20T17:18:03.261Z,2022-08-30T17:17:13.273Z,Cicero.Bernier25@yahoo.com,HItJRFkHW1YrxvbGLsWBFGa2u8QkFYDcipMn3TDyqUun6G4ksu,Sabrina,Franey,M,721-511-3253 x31208,"{'address': '6072 Carter Way', 'location': {'lat': 28.34459082856146, 'lng': 64.0995373298432}, 'placeId': 'ChIJrTLr-GyuEmsRBfy61i59si0', 'region': 'PK'}",(250) 685-1986,User,True
561,2023-04-17T02:57:11.682Z,2023-03-30T13:08:25.084Z,Deshaun22@yahoo.com,QjRTWgO7UYW7WPFYY9EKKn2saReyUaUHIDrBtdp0CsdqhI5TeU,Grady,Wisoky,M,1-560-702-9100 x265,"{'address': '8705 Turner Highway', 'location': {'lat': 27.7340023307804, 'lng': 77.60132569940936}, 'placeId': 'ChIJrTLr-GyuEmsRBfy61i59si0', 'region': 'PK'}",(854) 235-9061 x516,User,True
9719,2022-09-29T14:59:14.200Z,2022-06-22T16:39:49.759Z,Adriel95@yahoo.com,KQUjI1lNK98OiE5as5yn22byEBiFOGHM6m1wR82dlkXX0J5yFE,Alfreda,Leuschke,F,1-731-712-8294,"{'address': '289 Kulas Lake', 'location': {'lat': 19.730077922311708, 'lng': 63.437169265474495}, 'placeId': 'ChIJrTLr-GyuEmsRBfy61i59si0', 'region': 'PK'}",(736) 982-0185 x939,User,True
7391,2023-02-07T01:23:59.607Z,2023-02-16T12:21:34.140Z,Furman.Cruickshank51@yahoo.com,jEutU3wSANMH6Hc42h4VShWlWQGGg1AI6qMxSMjs8KN4DVj61M,Eudora,Fahey,F,800-559-8688 x8805,"{'address': '8935 Steuber Point', 'location': {'lat': 26.51228866336421, 'lng': 69.58286254834991}, 'placeId': 'ChIJrTLr-GyuEmsRBfy61i59si0', 'region': 'PK'}",1-547-941-0333,User,True
9082,2022-06-22T11:33:26.982Z,2023-01-10T07:45:32.162Z,Kelsie.Turner@gmail.com,JPoPw1zGNPDcE2mlCj98KecTFwvsNob7BgLqtGzu8JCGG8BHYQ,Norma,Bernier,F,549-526-0428 x929,"{'address': '492 Cecile Neck', 'location': {'lat': 28.253405671726814, 'lng': 57.62803793273429}, 'placeId': 'ChIJrTLr-GyuEmsRBfy61i59si0', 'region': 'PK'}",(538) 500-1798 x132,User,True
7707,2022-12-04T16:54:54.612Z,2023-04-27T18:04:26.510Z,Sterling_OKeefe@gmail.com,LILwOtplqCEExgMACYVZcvEFUkZscjVB2fjMYP2Ex2Wa4cNSD1,Norwood,Langosh-Schmeler,F,205-673-6969 x889,"{'address': '6863 Pfeffer Locks', 'location': {'lat': 26.56883668885961, 'lng': 53.58757938984559}, 'placeId': 'ChIJrTLr-GyuEmsRBfy61i59si0', 'region': 'PK'}",310-200-8356 x968,User,True
9146,2022-07-20T03:12:37.530Z,2023-05-11T15:03:59.801Z,Rebekah.Denesik24@yahoo.com,xbeZmCHZynmNAAGUDGiQgIYpCUZ0Z8dEqFITCA50XXcmVjAwH1,Deshawn,Durgan,M,652-405-1585 x5876,"{'address': '66589 Alverta Springs', 'location': {'lat': 29.894270246926105, 'lng': 64.96318136156651}, 'placeId': 'ChIJrTLr-GyuEmsRBfy61i59si0', 'region': 'PK'}",1-779-916-0834 x9434,User,True
230,2023-01-14T14:58:28.586Z,2022-12-30T21:46:23.629Z,Icie.Jenkins@yahoo.com,39OqfywAa1Iup7OeuKmvOJ2pwjAFuBdPu1FQ6GwJHNj3XYpIgf,Ebony,Spencer,M,982-754-1060 x22022,"{'address': '96519 Medhurst Field', 'location': {'lat': 12.229550431509992, 'lng': 67.53370483725337}, 'placeId': 'ChIJrTLr-GyuEmsRBfy61i59si0', 'region': 'PK'}",(200) 893-3704,User,True
17,2022-09-24T00:06:04.192Z,2022-08-11T13:43:06.579Z,Ora.Lind-Casper@gmail.com,HR28Pl8HvCqRH8uflb0toFwclhdf5BvjgISOr5SSnh0Vxnk8Xu,Mckenna,Gorczany,M,(675) 897-1022 x8642,"{'address': '1814 Nathaniel Heights', 'location': {'lat': 26.274282833545865, 'lng': 61.5531621300363}, 'placeId': 'ChIJrTLr-GyuEmsRBfy61i59si0', 'region': 'PK'}",493-771-1727 x7584,User,True
9692,2023-01-04T11:08:19.367Z,2023-01-21T21:33:15.434Z,Elfrieda.Quitzon59@hotmail.com,w5cVWmNpqsZcgsNwySZF0iY0Z9fsrGKZyj5o0M2dUfqtanSFfO,Carol,Hackett,F,(557) 752-4754,"{'address': '9622 Maud Lakes', 'location': {'lat': 36.252781261452654, 'lng': 70.5024577715302}, 'placeId': 'ChIJrTLr-GyuEmsRBfy61i59si0', 'region': 'PK'}",(624) 973-9546,User,True
2355,2022-06-25T06:08:33.649Z,2022-11-29T14:40:37.498Z,Eva11@yahoo.com,DXGJH6ixISkMnCfp8EKZxriUEWuweussRPlnWoidLLwJV8zcfI,Camille,Green,F,787-686-4836 x67094,"{'address': '33188 Joaquin Dale', 'location': {'lat': 22.39287600298803, 'lng': 67.52426340225907}, 'placeId': 'ChIJrTLr-GyuEmsRBfy61i59si0', 'region': 'PK'}",941-315-5344 x2966,User,True
8558,2022-12-05T10:53:46.095Z,2023-01-15T01:54:56.240Z,Jan_Donnelly@gmail.com,dh7emBBDE0IJLWI7QsZ66Wz7X1qKJWKcLpYkSqvWJ8WQf00kWi,Layla,Schulist,M,1-573-892-9206,"{'address': '9635 Marcia Grove', 'location': {'lat': 16.59195562873095, 'lng': 56.86527266916687}, 'placeId': 'ChIJrTLr-GyuEmsRBfy61i59si0', 'region': 'PK'}",289.559.1274 x330,User,True
155,2022-09-05T01:00:48.712Z,2022-06-11T14:26:57.969Z,Prudence57@yahoo.com,FLgs0luQ3F9zAQDpp86FOSVZnRdBMtm71RozgsS1X7A2cvdUji,Isac,Mann,M,(665) 348-7529 x61389,"{'address': '572 Zieme Highway', 'location': {'lat': 25.151203432658473, 'lng': 74.91317072360368}, 'placeId': 'ChIJrTLr-GyuEmsRBfy61i59si0', 'region': 'PK'}",1-238-210-0775 x7878,User,True
3734,2023-04-18T18:36:35.665Z,2023-03-02T02:06:19.965Z,Joan78@hotmail.com,37uem3bO76CThWsftywqljDds3XKayo7P3L9uUlla0xaIUi0k5,Mabel,Smitham,M,663.385.8933 x357,"{'address': '9640 Alexander Via', 'location': {'lat': 20.534396465298713, 'lng': 65.0795176179256}, 'placeId': 'ChIJrTLr-GyuEmsRBfy61i59si0', 'region': 'PK'}",640-397-7086,User,True
7604,2022-12-17T23:45:14.313Z,2023-04-28T22:30:56.491Z,Grant_Dach@yahoo.com,6BPsfzGAlS6wKhr7wLYCjhChysmJ2gehPPlN9b8MnoIa0fSxuu,Savannah,Dicki,F,(743) 647-5822,"{'address': '165 Isaac Island', 'location': {'lat': 35.3323876157574, 'lng': 60.91800294517407}, 'placeId': 'ChIJrTLr-GyuEmsRBfy61i59si0', 'region': 'PK'}",829.464.6300,User,True
8559,2022-09-30T08:44:18.443Z,2023-03-09T16:27:38.276Z,Brad_Weimann@yahoo.com,DzHcADKCZop2mtFBejSvgR8IKPlbhsnM7z1ld3rR4uVSJlPUQ0,Rico,Aufderhar,F,(250) 854-7108,"{'address': '9841 Silas Oval', 'location': {'lat': 23.13289425506372, 'lng': 80.27215750933851}, 'placeId': 'ChIJrTLr-GyuEmsRBfy61i59si0', 'region': 'PK'}",(465) 629-5300 x78007,User,True
9004,2022-09-23T11:57:10.903Z,2022-06-28T02:26:48.578Z,Cara.Runte78@hotmail.com,PtYOC19RFodAozL0Tvayki87Gwbh8PvhrOGKXhSwL3Oyfg2M4n,Griffin,Osinski,M,1-863-304-8007 x1619,"{'address': '17712 Brekke Divide', 'location': {'lat': 17.41931998388514, 'lng': 71.1354192672386}, 'placeId': 'ChIJrTLr-GyuEmsRBfy61i59si0', 'region': 'PK'}",1-672-313-7149 x11802,User,True
2433,2023-03-19T15:01:27.929Z,2023-02-02T17:53:33.420Z,Clotilde93@gmail.com,DYI7evhTGFTiNxAw9RRbIXoEqfwko3UFM5K0TaqzqQT3UNCKHR,Willow,Bauch,F,1-230-211-8786 x979,"{'address': '943 Jeanie Lakes', 'location': {'lat': 25.088466989493078, 'lng': 62.30978210432454}, 'placeId': 'ChIJrTLr-GyuEmsRBfy61i59si0', 'region': 'PK'}",1-660-354-0592 x09183,User,True
7017,2023-03-13T21:25:36.076Z,2022-08-22T20:49:06.678Z,Assunta.Kessler@yahoo.com,HW2FpgLljZY5LwDf54CqnPxNgVUkanAikxOuhnQUsqBVXiE1Dt,Tom,Goyette,F,957-467-1031 x98784,"{'address': '818 Mohammed Courts', 'location': {'lat': 28.264929728410557, 'lng': 69.22845929487994}, 'placeId': 'ChIJrTLr-GyuEmsRBfy61i59si0', 'region': 'PK'}",1-701-525-3471 x6502,User,True
871,2023-05-23T21:50:49.689Z,2022-08-16T16:33:35.450Z,Lucious11@hotmail.com,Dx64SW9hMY7DENbysiuqXV7ya26LvpJ1TANmYL6bp8jIUqSj10,Ellis,Klocko,F,281-695-4081 x74904,"{'address': '9590 Hamill Crossroad', 'location': {'lat': 32.242554722901936, 'lng': 63.45659532462241}, 'placeId': 'ChIJrTLr-GyuEmsRBfy61i59si0', 'region': 'PK'}",841-587-4990 x83117,User,True
5624,2023-01-24T07:16:40.585Z,2022-10-03T00:32:56.317Z,Dexter85@hotmail.com,oVcx8eBIwsClGNeWW9NnHu0A9H8jN9R4nDyAWrefNdUtY74GMY,Cole,Feeney,M,766-354-3244 x59133,"{'address': '6293 Timmy Bypass', 'location': {'lat': 23.069900302505356, 'lng': 68.9153335221364}, 'placeId': 'ChIJrTLr-GyuEmsRBfy61i59si0', 'region': 'PK'}",734.917.3680 x2169,User,True
3402,2022-06-14T23:12:38.693Z,2022-09-11T21:25:00.531Z,Jessie_Hudson@hotmail.com,0UxwSlrxs3eO4PhEENyYSSIZmL7JJI6mNKcDn5q724EIR8whD9,Dock,Mitchell,M,754.793.3501 x1780,"{'address': ""9205 O'Kon Bypass"", 'location': {'lat': 23.290745173989855, 'lng': 69.90569950161444}, 'placeId': 'ChIJrTLr-GyuEmsRBfy61i59si0', 'region': 'PK'}",902-818-9393 x6463,User,True
823,2023-02-18T09:35:41.766Z,2022-10-20T22:16:53.350Z,Nils71@hotmail.com,NQAL5iGdanCFXJslYIQ1aS1iETMHvz2mpIgv14GAFBtSM1qjM7,Keeley,Hudson,M,427.714.2377,"{'address': '20504 Bettie Valleys', 'location': {'lat': 24.834318512849876, 'lng': 71.53760838155802}, 'placeId': 'ChIJrTLr-GyuEmsRBfy61i59si0', 'region': 'PK'}",555-506-6782 x99056,User,True
5575,2022-07-03T16:49:56.338Z,2023-01-01T07:39:13.181Z,Fanny98@hotmail.com,yoXB6XJaOjOxOtkXGAPrJgQdarnGh5OFXtoZbWY6OhriZ3Q51y,Rick,Cummerata,M,1-421-709-8349 x74495,"{'address': '53694 Reichel Trafficway', 'location': {'lat': 20.39294512568959, 'lng': 68.1741850385871}, 'placeId': 'ChIJrTLr-GyuEmsRBfy61i59si0', 'region': 'PK'}",(871) 563-7971 x0885,User,True
5597,2023-01-16T21:35:13.012Z,2022-07-10T11:57:49.058Z,Ellis_Leuschke2@yahoo.com,Z5mAvEKgfD9llZZOPjaBXda1PJN73H4rKG5hYRXD5FhnM5qeVm,Kira,Rau,F,925.923.6424 x1361,"{'address': '92003 Dietrich Trace', 'location': {'lat': 20.97982633126101, 'lng': 65.36857128317592}, 'placeId': 'ChIJrTLr-GyuEmsRBfy61i59si0', 'region': 'PK'}",948.778.0615 x78161,User,True
7957,2023-05-30T00:06:24.846Z,2022-06-19T03:57:15.356Z,Caden_Hammes@gmail.com,lsxp3AvvDoaAd70kZLiTlfpa8bp2n2Y27en90vVAlgaBDaUaF1,Maybell,Mayert,M,(945) 475-4875 x4621,"{'address': '366 Harber Village', 'location': {'lat': 14.258495352522777, 'lng': 68.4251900775331}, 'placeId': 'ChIJrTLr-GyuEmsRBfy61i59si0', 'region': 'PK'}",202-665-2625 x602,User,True
4631,2022-12-13T19:39:45.665Z,2022-12-21T18:21:22.723Z,Jamaal_Cartwright@hotmail.com,Xstc7PtinGuoq2nLOgqHt675l10VfFnx6OqhwDlAJGZSb3IaXY,Carroll,Nader,F,(889) 296-4025,"{'address': '2174 Shakira Heights', 'location': {'lat': 18.970304476867405, 'lng': 65.45209639830273}, 'placeId': 'ChIJrTLr-GyuEmsRBfy61i59si0', 'region': 'PK'}",1-801-643-3294,User,True
9756,2023-02-19T17:47:29.208Z,2022-08-29T18:10:31.776Z,Roosevelt_Schmeler41@yahoo.com,VwuX6F9yt0BAD1mfZq9w5Fm23AKBT25ShvygA3oGIRb6193i37,Luther,Carter,F,(823) 549-9554 x162,"{'address': '535 Eliza Street', 'location': {'lat': 21.522683571670488, 'lng': 65.5821737137195}, 'placeId': 'ChIJrTLr-GyuEmsRBfy61i59si0', 'region': 'PK'}",1-997-973-5816,User,True
5318,2022-08-16T15:22:27.455Z,2023-03-24T04:24:53.987Z,Kattie31@gmail.com,q8zEH74z52Ug33jt1eq4oO4O9CRdu73g3NM6dOno1zVRglTXP0,Emma,Frami,M,787-440-3251 x9392,"{'address': '981 Blick Terrace', 'location': {'lat': 30.036701709516837, 'lng': 68.43859656841221}, 'placeId': 'ChIJrTLr-GyuEmsRBfy61i59si0', 'region': 'PK'}",617-263-3868 x46438,User,True
1786,2023-04-06T08:18:11.358Z,2022-09-16T05:39:50.772Z,Wilmer.Streich85@hotmail.com,dU7DXoUtkkAcflKC2yISl04GbnBs4csZXYjYvfUQewkC6nllKQ,Arthur,Price,M,1-519-947-0048 x83959,"{'address': '438 Eleanora Mountains', 'location': {'lat': 29.321353098551576, 'lng': 68.38537260525084}, 'placeId': 'ChIJrTLr-GyuEmsRBfy61i59si0', 'region': 'PK'}",500-447-2801 x043,User,True
2047,2022-09-26T07:48:48.843Z,2022-08-23T16:04:39.316Z,Alejandrin_Howell47@yahoo.com,6NM9wVWrFp6G0YVHIcVsUVUc3UF7QRyJSMRSEu6dNealH54L6U,Imelda,Welch,M,1-495-258-6764,"{'address': '64878 Gleason Crossing', 'location': {'lat': 25.711621820903066, 'lng': 67.15741595010877}, 'placeId': 'ChIJrTLr-GyuEmsRBfy61i59si0', 'region': 'PK'}",566.589.9674 x18734,User,True
5665,2022-11-16T17:09:26.591Z,2023-02-27T01:58:02.825Z,Braulio70@yahoo.com,4uczC6bSajuaBaEdaaUALHrIWl2shoYlEcUeCEKHiUdUzStz73,Neil,Johnson,F,542.601.1995 x402,"{'address': '12936 Marquardt Hills', 'location': {'lat': 22.754364619153886, 'lng': 68.55747721189516}, 'placeId': 'ChIJrTLr-GyuEmsRBfy61i59si0', 'region': 'PK'}",(362) 212-2204 x47979,User,True
3260,2023-03-19T22:50:06.051Z,2022-11-15T22:07:45.629Z,Deanna_Ortiz-VonRueden38@gmail.com,cfTDR83T70qX9UwW7FlN4zBXCeCbG3bUByxPTX5ohtCwbe7TWv,Shanon,Cronin,F,635.916.0000 x36408,"{'address': '6601 Merlin Drives', 'location': {'lat': 21.582599454905193, 'lng': 64.48316933384206}, 'placeId': 'ChIJrTLr-GyuEmsRBfy61i59si0', 'region': 'PK'}",1-735-446-9112 x154,User,True
6797,2022-06-10T10:44:17.897Z,2023-03-04T03:08:55.545Z,Raleigh.Feeney25@hotmail.com,juVhRVsRBI7iYHskb6ofXimHTs9CgoDacu2PIJRhCcV2aynruG,Wilfrid,Hudson,F,336-562-3405,"{'address': '343 Bergnaum Port', 'location': {'lat': 23.55448014580588, 'lng': 66.51821581624074}, 'placeId': 'ChIJrTLr-GyuEmsRBfy61i59si0', 'region': 'PK'}",1-594-824-6447,User,True
8174,2023-02-16T11:54:34.449Z,2023-05-10T08:39:00.178Z,Germaine66@hotmail.com,K2F9aR8NAYTBJbxcGTmIKL9CiS90CT5ExBwwrcpfDhKKRwe2DG,Mina,Howe,M,(643) 587-9061 x436,"{'address': '335 Damion Burgs', 'location': {'lat': 36.11833616940004, 'lng': 60.19582946272328}, 'placeId': 'ChIJrTLr-GyuEmsRBfy61i59si0', 'region': 'PK'}",(337) 948-5706 x1397,User,True
8914,2023-04-02T09:18:52.602Z,2023-01-06T22:28:58.128Z,Lina.Greenholt@yahoo.com,bnWzjh4fghSfLKjikmqmmWUs7n3lc9NGs8lGEJPIWdD1qyVey6,Kenya,Rowe,M,515.262.6965 x7978,"{'address': '13495 Trever Plains', 'location': {'lat': 24.579030933621603, 'lng': 67.19545499919059}, 'placeId': 'ChIJrTLr-GyuEmsRBfy61i59si0', 'region': 'PK'}",629.293.3045 x8248,User,True
5524,2023-01-24T04:08:33.607Z,2022-08-24T20:47:40.549Z,America.Reinger@gmail.com,7fiOLgcKMqPM0n2yzfC9745j2MvoI60tMxAtfOAwxUyQtJ0UC8,Aletha,Miller,M,(374) 296-6048 x2413,"{'address': '9590 Wehner Ford', 'location': {'lat': 30.944290869171375, 'lng': 66.66602025283044}, 'placeId': 'ChIJrTLr-GyuEmsRBfy61i59si0', 'region': 'PK'}",1-620-566-1600 x43428,User,True
9981,2023-03-22T05:16:49.218Z,2023-03-09T03:35:01.069Z,Caleigh95@gmail.com,5vMBJ0RRoGRGvW3NQOt1K7iHVLT5AYsiZyUYeTLS9fnZHw6rti,Olin,Herman,M,(816) 649-3051 x19071,"{'address': '59434 Jenkins Ranch', 'location': {'lat': 27.29028178779803, 'lng': 69.60651573230712}, 'placeId': 'ChIJrTLr-GyuEmsRBfy61i59si0', 'region': 'PK'}",514-265-0077 x69486,User,True
5940,2023-03-02T15:55:33.166Z,2022-06-22T15:42:56.453Z,Vena_Mayer@yahoo.com,19olI8hph8jQcwbPSPGacDxkHdr0jDHx4o0dYqsm2ndt04X1CY,Pearl,Schinner,F,1-522-511-4734 x8330,"{'address': '718 Laron Manors', 'location': {'lat': 26.956616957814372, 'lng': 80.0192300931617}, 'placeId': 'ChIJrTLr-GyuEmsRBfy61i59si0', 'region': 'PK'}",379.913.7787 x433,User,True
6575,2022-07-20T23:42:52.552Z,2022-12-18T04:36:47.881Z,Ressie.Krajcik@yahoo.com,HpqoT9poYPqNTsKnVOFQPhDDxnuvIoWvdySA9JmrhLzEHWHqlE,Alysa,Schaefer,F,945.684.9155 x04722,"{'address': '33426 Gregoria Rue', 'location': {'lat': 12.737044831769172, 'lng': 74.77610486276376}, 'placeId': 'ChIJrTLr-GyuEmsRBfy61i59si0', 'region': 'PK'}",(859) 637-2421 x87145,User,True
4511,2023-03-30T16:04:59.089Z,2023-03-31T01:29:08.223Z,Roman59@gmail.com,6A6N2cNmeafRMFpYBUg26ask2xC0X2gpUZsHMLEckdWWnaWpQw,Maximillia,Dare,F,552-322-3747,"{'address': '29871 Collin Crest', 'location': {'lat': 24.64042385774379, 'lng': 62.476652826805434}, 'placeId': 'ChIJrTLr-GyuEmsRBfy61i59si0', 'region': 'PK'}",(647) 219-5922 x248,User,True
8976,2023-01-22T13:47:42.411Z,2023-04-20T02:23:03.318Z,Douglas.Tremblay-Thompson1@yahoo.com,OyX8y2t5ULCAqEu2MLyKosxLh3bLRoTNTQUz62azPlAXW9GtwW,Aron,Swift,F,858-619-8296 x17227,"{'address': '90108 Evie Cliff', 'location': {'lat': 18.36038813445348, 'lng': 66.76302384297617}, 'placeId': 'ChIJrTLr-GyuEmsRBfy61i59si0', 'region': 'PK'}",(992) 422-7923 x82843,User,True
5648,2022-10-05T04:11:16.897Z,2023-04-19T06:52:01.796Z,Carlo68@hotmail.com,iAp9SlP9AIYzvn41h9CxVoCSVv7oJ8D6dTIMLynupodvlFqV45,Tania,Lowe,F,610-728-4659 x2906,"{'address': '316 Vincent Expressway', 'location': {'lat': 21.126493681989214, 'lng': 68.32295516406907}, 'placeId': 'ChIJrTLr-GyuEmsRBfy61i59si0', 'region': 'PK'}",777.447.8566,User,True
6266,2023-03-14T13:32:55.482Z,2022-12-30T12:20:59.110Z,Vladimir97@yahoo.com,wGbfAupw71J7IduwDLl4JXjuFdXIWzAUpchE7u97VfCs246cAp,Jaquan,Jones,M,253-430-8586 x83952,"{'address': '22111 Russel Views', 'location': {'lat': 20.86754953506255, 'lng': 63.10927065978228}, 'placeId': 'ChIJrTLr-GyuEmsRBfy61i59si0', 'region': 'PK'}",498-258-4842,User,True
6193,2023-01-29T22:32:33.887Z,2022-10-23T20:08:47.840Z,Elissa61@yahoo.com,7Y15E8y32MPpyVg8NJTgbsTW6R0c3LNk4U9QgKful1Bd5XJTEQ,Aubree,Haag,M,600-333-5949 x4673,"{'address': '5740 Ricardo Trafficway', 'location': {'lat': 29.188344759122124, 'lng': 64.77412465246971}, 'placeId': 'ChIJrTLr-GyuEmsRBfy61i59si0', 'region': 'PK'}",947-228-0974 x5574,User,True
7998,2022-11-08T17:42:09.604Z,2022-09-30T05:08:46.699Z,Callie.Johnston45@yahoo.com,4atj6wsnYhERUQdIj3thVHkANwWTnXQgIklxe1zzefeMcIoTmh,Deondre,Haley,F,1-363-861-0516 x9506,"{'address': '5522 McGlynn Shores', 'location': {'lat': 26.288365014220616, 'lng': 69.27008522829567}, 'placeId': 'ChIJrTLr-GyuEmsRBfy61i59si0', 'region': 'PK'}",558-561-6261 x22318,User,True
8791,2022-10-09T15:05:31.568Z,2022-12-06T20:18:50.798Z,Krystal.Kling@gmail.com,cu8dANz5tdP00KYIIGB3PbWVsJNECoKQRXknO6fl2te9lPyrVI,German,Gleason,F,1-685-680-7789 x6817,"{'address': '6735 Judy Hill', 'location': {'lat': 30.900522330445646, 'lng': 64.64864719599984}, 'placeId': 'ChIJrTLr-GyuEmsRBfy61i59si0', 'region': 'PK'}",1-949-337-1263 x84933,User,True
8413,2023-04-03T08:11:24.062Z,2022-10-29T19:45:01.650Z,Mateo.Schamberger@hotmail.com,4iP75XT9kezr2Y7HnXboNiMNsVqHr4acrnTtNkSzw9IL8vcZuO,Enos,O'Hara,F,415-704-0025,"{'address': '528 Predovic Ridge', 'location': {'lat': 25.155665284903005, 'lng': 80.57931820106717}, 'placeId': 'ChIJrTLr-GyuEmsRBfy61i59si0', 'region': 'PK'}",445.922.8780 x813,User,True
5071,2022-11-18T03:07:27.012Z,2022-06-23T12:33:32.393Z,Albin87@gmail.com,pbH0ikJtDS9uz7pWF6fHzntsrLMYfhwei00YL3xLh0AfwkSPse,Jose,Howe,F,223.575.7700 x10681,"{'address': '9220 Nader Hill', 'location': {'lat': 26.30732022169535, 'lng': 66.07961990942749}, 'placeId': 'ChIJrTLr-GyuEmsRBfy61i59si0', 'region': 'PK'}",1-800-565-1963,User,True
1114,2022-12-14T11:08:01.197Z,2022-10-09T06:50:28.308Z,Carson_Labadie45@gmail.com,ytibHoYmrh3aV8AFwHqO65Y4xktwK61N2rxqPpfp0gQVbELpLp,Chandler,Monahan,F,(458) 463-9730,"{'address': '7147 Bartoletti Stravenue', 'location': {'lat': 25.032420740652906, 'lng': 66.18512868959203}, 'placeId': 'ChIJrTLr-GyuEmsRBfy61i59si0', 'region': 'PK'}",(644) 885-2006 x3561,User,True
1231,2022-11-11T23:55:20.340Z,2022-10-16T14:15:02.082Z,Thurman.Brekke@hotmail.com,7g27N4mx1yPS0c2zMS3W2Jw4m0Kel2223B0hzWWShCbXBFL0lJ,Manuel,Price,M,387.406.4530 x95907,"{'address': '641 Willy Manors', 'location': {'lat': 24.187792543020404, 'lng': 73.53051447236044}, 'placeId': 'ChIJrTLr-GyuEmsRBfy61i59si0', 'region': 'PK'}",1-536-407-8097 x0276,User,True
3669,2023-05-30T15:04:00.476Z,2022-10-09T03:18:35.833Z,Maria_Batz66@gmail.com,2nU9U225tjTdBvupGIfXNnG444VkIh7vtP6v32S4gQEpn0keSg,Ruthie,Jakubowski,M,1-693-664-5543 x4979,"{'address': '6423 Cremin Spring', 'location': {'lat': 26.635511168984813, 'lng': 64.1869723075946}, 'placeId': 'ChIJrTLr-GyuEmsRBfy61i59si0', 'region': 'PK'}",1-575-698-0382,User,True
6593,2023-01-02T09:56:07.685Z,2022-09-15T15:13:17.823Z,Davonte.Robel@gmail.com,LojyVACke93A5zHgXlG27hTlI9dKfW5nghqAytHtQTbta96Tlm,Jess,Cremin,F,381.547.7070 x9450,"{'address': '416 Marielle Dale', 'location': {'lat': 17.18759477322963, 'lng': 62.715939615963634}, 'placeId': 'ChIJrTLr-GyuEmsRBfy61i59si0', 'region': 'PK'}",912.543.8322 x8979,User,True
2529,2022-07-24T17:26:41.583Z,2023-05-03T00:05:16.346Z,Eino.Purdy32@gmail.com,mReVd1FDYlj22cHl2iAV819rF68rGnvtBkxPrE13MtV0fp7AEW,Sage,Hartmann,M,265.207.2643 x0681,"{'address': '40255 Rossie Parkway', 'location': {'lat': 30.903526773694487, 'lng': 72.219153076662}, 'placeId': 'ChIJrTLr-GyuEmsRBfy61i59si0', 'region': 'PK'}",(233) 489-8027,User,True
9290,2023-01-18T03:41:57.635Z,2022-06-19T13:59:37.554Z,Santina43@hotmail.com,fzGC4FIN3A5NUlMVXwOrAYdt5HlW4fsenIpDAuiTCeeen0xktw,Kasandra,Hickle,M,1-257-794-3361 x033,"{'address': '819 Trantow Gateway', 'location': {'lat': 24.85500978599183, 'lng': 67.05166313810946}, 'placeId': 'ChIJrTLr-GyuEmsRBfy61i59si0', 'region': 'PK'}",616-785-2255,User,True
5530,2022-10-27T15:31:09.817Z,2022-12-08T08:29:40.399Z,Catharine.Reilly73@gmail.com,f8nipBdGJKoHlo7R0yWjQf2xpaeyXXFEBokWk5USF25C0uLSuW,Rosie,Weissnat,M,(256) 756-7375 x384,"{'address': '630 Nikolaus Expressway', 'location': {'lat': 11.526495787149011, 'lng': 70.16334254169567}, 'placeId': 'ChIJrTLr-GyuEmsRBfy61i59si0', 'region': 'PK'}",912.324.2447 x17204,User,True
2460,2023-05-05T09:18:16.727Z,2023-03-29T22:42:23.584Z,Cornelius_Kunze39@gmail.com,TuFa8OCocisXgGrhWrK7dYZPy1cDl65xRTbGeO3CyZfofkyrVp,Bertram,Walsh,M,724.647.2488 x008,"{'address': '8757 Karianne Underpass', 'location': {'lat': 14.864229414091387, 'lng': 64.23396829387661}, 'placeId': 'ChIJrTLr-GyuEmsRBfy61i59si0', 'region': 'PK'}",(863) 593-3046,User,True
1065,2023-04-20T07:24:38.937Z,2023-01-15T03:43:33.207Z,Angie26@yahoo.com,Y47QPAQLp79tyemP0h3Zvjq15aJiNPZ6tGqBaNaMEmp3nPPrYU,Austin,Kling,M,536.652.3833 x533,"{'address': '694 Hackett Mountain', 'location': {'lat': 22.657297599310006, 'lng': 75.94241217275044}, 'placeId': 'ChIJrTLr-GyuEmsRBfy61i59si0', 'region': 'PK'}",294.432.0114 x6198,User,True
9453,2022-06-25T19:51:35.678Z,2023-02-06T16:59:07.396Z,Vicenta_Parker58@hotmail.com,xyEeQ1Fa9rlnifRGlxDfEBbkQXTY4VmFQXM8qQC1Mzc1bnqis0,Melba,Sporer,F,(634) 824-3376 x186,"{'address': '5724 Amya Freeway', 'location': {'lat': 24.918923878278985, 'lng': 67.03319089723027}, 'placeId': 'ChIJrTLr-GyuEmsRBfy61i59si0', 'region': 'PK'}",(273) 314-2353,User,True
6671,2022-07-28T04:24:07.447Z,2023-05-06T11:13:13.266Z,Mayra_Becker35@hotmail.com,ZQYDIn6TrvkBLabOkrQa7V7kwO1MqtvyBWszZDsp9lb8usUopD,Mellie,Lang,F,(697) 954-4194 x0749,"{'address': '39441 Maggio Stravenue', 'location': {'lat': 28.1980321891056, 'lng': 77.99941707098606}, 'placeId': 'ChIJrTLr-GyuEmsRBfy61i59si0', 'region': 'PK'}",376.999.0992,User,True
2981,2022-12-31T18:11:23.656Z,2023-04-20T11:56:39.187Z,Valentin_Herzog84@yahoo.com,5btEbOXhKY9oQeMISXs09ikqwaD8bCEizvvC97ZzqwBN7vppwA,Marcelo,Olson,M,1-627-474-3365 x2366,"{'address': '813 Lucy Bypass', 'location': {'lat': 13.757942169758488, 'lng': 62.71008277215833}, 'placeId': 'ChIJrTLr-GyuEmsRBfy61i59si0', 'region': 'PK'}",893-751-2219,User,True
6301,2023-04-29T05:41:48.506Z,2022-12-06T19:12:30.469Z,Donato61@yahoo.com,JsYgb2tpNNYy2vxLcICmt81fXDMEcXNTB6IGUOVlCv2AbZ9V90,Elmore,Leffler,M,(343) 813-5557,"{'address': '649 Ignacio Burg', 'location': {'lat': 23.32441667246175, 'lng': 68.62017641865407}, 'placeId': 'ChIJrTLr-GyuEmsRBfy61i59si0', 'region': 'PK'}",(317) 698-6896 x5031,User,True
4614,2022-07-20T15:27:35.480Z,2023-03-23T21:30:58.646Z,Shany_Schulist58@yahoo.com,iNxIoAdGJ2VGo1jzXJpal0A4j9LctTQhgk3DZUOO78mR9wthzG,Dock,Goldner,F,(825) 967-4305 x99752,"{'address': '750 Marcos Port', 'location': {'lat': 18.293874368230398, 'lng': 59.47427292356247}, 'placeId': 'ChIJrTLr-GyuEmsRBfy61i59si0', 'region': 'PK'}",(419) 539-6745,User,True
9534,2022-09-22T16:23:44.858Z,2022-08-12T22:36:14.899Z,Tomasa.Bogisich@hotmail.com,YzAN6RRnR5KwQgGfDYfzMMTVATqiqS6ANeOjFvkOh6z7f09BTy,Bruce,Shanahan,F,693-517-4243 x389,"{'address': '9862 Marilie Stream', 'location': {'lat': 27.13255983641937, 'lng': 61.18984110620397}, 'placeId': 'ChIJrTLr-GyuEmsRBfy61i59si0', 'region': 'PK'}",1-875-420-5734 x726,User,True
9933,2022-11-09T06:24:33.106Z,2022-12-10T18:12:22.934Z,Jovani.Berge@yahoo.com,Y5vDu9JdZuRR1u7FUTVCNjgDz6YrvWYUOfphbdrzAO4KbztlQ5,Kamille,Fay,F,1-712-856-9630 x29117,"{'address': '91668 Smitham Fields', 'location': {'lat': 31.493841123237697, 'lng': 64.63915112001325}, 'placeId': 'ChIJrTLr-GyuEmsRBfy61i59si0', 'region': 'PK'}",1-499-766-0051 x1733,User,True
2517,2022-07-05T05:38:06.886Z,2023-04-24T08:55:50.161Z,Brycen23@gmail.com,3iwPd2BqSQS3wmbszQoPTSqSrBCYGe1ZgLQTzYGdYD4XHleSa4,Viviane,Carroll,F,840-257-7394 x8918,"{'address': '142 Auer Overpass', 'location': {'lat': 18.74270765827344, 'lng': 78.60648658756963}, 'placeId': 'ChIJrTLr-GyuEmsRBfy61i59si0', 'region': 'PK'}",(375) 670-3553,User,True
3374,2022-07-28T11:52:15.700Z,2022-11-26T23:14:40.676Z,Amina.Hane68@hotmail.com,8sKJhOJGCPLtdKA5TwZDkS2FmFWfvm1EUfyXDPXkmPb9tHrdM7,Jennyfer,Thompson,F,393.258.8743,"{'address': '16326 Morton Keys', 'location': {'lat': 17.184492329062714, 'lng': 63.58186876622972}, 'placeId': 'ChIJrTLr-GyuEmsRBfy61i59si0', 'region': 'PK'}",1-615-934-2630,User,True
4596,2023-05-17T22:31:49.203Z,2022-09-01T03:48:09.046Z,Murray.Hand58@gmail.com,f6hT9oxWyyCc8sRbWbL9APPYRqXXZIaVraxMYLmxqA1rvGryGH,Rowland,Trantow,F,1-945-591-2051 x60509,"{'address': '370 Hodkiewicz Key', 'location': {'lat': 27.265197454317082, 'lng': 55.187442347267734}, 'placeId': 'ChIJrTLr-GyuEmsRBfy61i59si0', 'region': 'PK'}",(940) 749-2789 x8770,User,True
3017,2022-06-02T19:17:14.239Z,2023-04-17T10:50:38.412Z,Fabiola_Zboncak@yahoo.com,qLZuFSp5nYCZOEEcEWVKqVCi1aZ3lE7jz5CkHm9iLTENFLgQUg,Nils,Kovacek,M,1-789-692-8095,"{'address': '3744 Hand Land', 'location': {'lat': 21.952986528003247, 'lng': 67.49239272348973}, 'placeId': 'ChIJrTLr-GyuEmsRBfy61i59si0', 'region': 'PK'}",915.454.4969 x35963,User,True
9770,2022-10-11T23:34:45.873Z,2022-08-25T18:58:46.204Z,Lindsay23@gmail.com,IqVN0N0OZBrY05tteAY2qI4KjNG1eutl0APetPXToFdY8c5DEd,Brody,Ratke,M,890-325-9545 x731,"{'address': '5945 Gussie Walk', 'location': {'lat': 25.869503030692393, 'lng': 52.71202440735692}, 'placeId': 'ChIJrTLr-GyuEmsRBfy61i59si0', 'region': 'PK'}",441-418-9450,User,True
4519,2023-05-11T18:41:41.326Z,2022-11-05T21:16:15.105Z,Eladio37@yahoo.com,E4sBrWwbaV1qwgBmtmO9jiBb57Je8l8NErauPNTyAkLwfei30H,Lavina,Doyle,F,389.347.9325 x070,"{'address': '187 Steve Crescent', 'location': {'lat': 32.41267305181529, 'lng': 64.34086819315189}, 'placeId': 'ChIJrTLr-GyuEmsRBfy61i59si0', 'region': 'PK'}",1-704-432-1004 x04171,User,True
1088,2023-02-08T06:32:46.081Z,2023-04-08T12:19:34.128Z,Eunice.Kub75@yahoo.com,fCyiDZpiMHkJEDWnD8vFZwt7l1p41HsJ7aDmUzw26KBMUlWNqw,Maxine,Koch,M,(964) 675-2221 x07197,"{'address': '90463 Muller Flat', 'location': {'lat': 22.586135422141073, 'lng': 70.50994371452373}, 'placeId': 'ChIJrTLr-GyuEmsRBfy61i59si0', 'region': 'PK'}",(459) 584-3240 x336,User,True
431,2023-01-17T03:36:09.452Z,2022-08-10T04:55:51.584Z,Damian.Rohan@yahoo.com,5DF9vEVRFgh9ODZ8o04oavx8Kg3iBDuAVMljy94dB9BQMgEMLv,Isobel,Jones,F,(428) 884-4753 x0055,"{'address': '58367 Hackett Junction', 'location': {'lat': 24.06258969349104, 'lng': 66.45558822196938}, 'placeId': 'ChIJrTLr-GyuEmsRBfy61i59si0', 'region': 'PK'}",797-397-9339 x22661,User,True
508,2022-12-28T06:23:12.749Z,2023-02-10T08:00:45.151Z,Isaiah_Luettgen@gmail.com,EMDbuDWNVPQOkRuJAW1qpZR5lq6Y4YycmKzaXhBVLwoQaYFrNv,Mauricio,Jerde,F,(617) 534-9928 x464,"{'address': '793 Frami Route', 'location': {'lat': 35.81420457294258, 'lng': 70.2612542856699}, 'placeId': 'ChIJrTLr-GyuEmsRBfy61i59si0', 'region': 'PK'}",689-493-8548 x1666,User,True
6975,2022-11-15T14:50:04.614Z,2023-02-18T13:03:52.570Z,Devonte.Koch17@hotmail.com,00ZNJ3CQ6vmN1BSOSkP3Bbt5Ob83D54CHUqUb0dXjd4UZcyEFv,Alexys,Zulauf,M,(858) 865-2829 x6515,"{'address': '41237 Lowe Route', 'location': {'lat': 29.597173806369142, 'lng': 78.46737549730847}, 'placeId': 'ChIJrTLr-GyuEmsRBfy61i59si0', 'region': 'PK'}",(275) 917-3092 x1303,User,True
5429,2022-07-15T16:06:30.302Z,2023-05-29T02:56:57.928Z,Adele.Torp@gmail.com,U6hUPWM36lVmCCwBLhPo3WrZFNDZiuAvmHIWuEOu9heZgUu935,Jesse,Hessel,M,1-550-968-8272 x66100,"{'address': '51049 Shanahan Terrace', 'location': {'lat': 29.4627320919679, 'lng': 59.06855174556597}, 'placeId': 'ChIJrTLr-GyuEmsRBfy61i59si0', 'region': 'PK'}",353-725-5980 x389,User,True
2364,2023-02-18T22:20:05.628Z,2022-08-26T02:54:39.739Z,Zane.Gutkowski@yahoo.com,bOdj39r4SFCd0OgBSPcxZi9yrbcDruu3Zr9TkMwQ8QGaxky5aC,Albertha,Nienow,F,345.907.3767 x869,"{'address': '61628 Ken Point', 'location': {'lat': 29.37634308514901, 'lng': 64.17169473967795}, 'placeId': 'ChIJrTLr-GyuEmsRBfy61i59si0', 'region': 'PK'}",(390) 870-1673 x107,User,True
4304,2023-03-30T07:38:30.262Z,2022-09-12T02:02:43.657Z,Michael.Considine76@yahoo.com,WncB1vYSsSAI7maPxMgy90VEefJeZjrbGAmuUDb8uhhIUmDfvD,Morgan,Bernier,F,565-307-5703 x145,"{'address': '888 Champlin Mill', 'location': {'lat': 15.173567082325777, 'lng': 66.8531758615527}, 'placeId': 'ChIJrTLr-GyuEmsRBfy61i59si0', 'region': 'PK'}",1-360-235-5876 x337,User,True
9662,2022-09-17T15:27:31.210Z,2023-05-15T18:00:14.874Z,Napoleon_Altenwerth@hotmail.com,OJUnc0ri2nxmPiW6Cjyw2IsTzNgGUPhY1u4WEMh1Z5wL2virHd,Linnie,Graham,M,907.945.8769 x13756,"{'address': '839 Nikolas Junctions', 'location': {'lat': 19.682464312168772, 'lng': 57.44252634486122}, 'placeId': 'ChIJrTLr-GyuEmsRBfy61i59si0', 'region': 'PK'}",871-916-9543 x27015,User,True
8176,2022-10-16T20:12:57.159Z,2022-09-17T00:42:52.893Z,Zackary72@hotmail.com,n2cQbANNjV6NnP4GuBJwfHkdhi8Ws29PR3ps80gXOFxNrIzqBT,Sigurd,Bartoletti,F,1-593-523-3836 x8567,"{'address': '40451 Zelda Rapid', 'location': {'lat': 14.591619041560676, 'lng': 73.03865320941873}, 'placeId': 'ChIJrTLr-GyuEmsRBfy61i59si0', 'region': 'PK'}",616-480-2756 x9433,User,True
2221,2022-10-05T07:50:34.888Z,2022-07-01T20:15:11.531Z,Aric_McCullough@gmail.com,dCeGDQI8igAuaJsuuszXQSjOWHtoaIU5eI8YIVydzoY0O4m5uy,Ottis,Paucek,F,(313) 839-8519,"{'address': '7835 Terry Valleys', 'location': {'lat': 27.168205167833552, 'lng': 61.857770297227376}, 'placeId': 'ChIJrTLr-GyuEmsRBfy61i59si0', 'region': 'PK'}",920-721-3122 x2974,User,True
558,2022-11-30T21:04:32.882Z,2022-11-04T17:10:13.876Z,Linnea_Bosco92@hotmail.com,wo0EOniKgGhebljF1kAjRWKVmy61nimdxWz2DbP1PJhO5ag8Ub,Issac,Nitzsche,M,804-422-0268,"{'address': '966 Klein Square', 'location': {'lat': 18.43613896841528, 'lng': 67.72706455456432}, 'placeId': 'ChIJrTLr-GyuEmsRBfy61i59si0', 'region': 'PK'}",836-521-9182 x40159,User,True
6440,2023-02-06T13:33:14.273Z,2022-09-05T08:28:12.727Z,Beatrice54@gmail.com,LE1Vw1AcQp60ZIMCx2pdqxFkPDGqDsspukVk8k1Z7pramg8I4f,Bernita,Stokes,F,464-892-5205 x5725,"{'address': '8958 Dahlia Overpass', 'location': {'lat': 28.848192636737128, 'lng': 68.78264812580369}, 'placeId': 'ChIJrTLr-GyuEmsRBfy61i59si0', 'region': 'PK'}",498.409.3877 x9583,User,True
6393,2023-04-25T22:25:36.674Z,2022-06-20T03:53:48.062Z,Arvid82@yahoo.com,TuizcYa5lFih9f65XTzQ65W9LMAwsCotlTddeZiAI1jfrZRtny,Alivia,West,F,366-567-2337 x31752,"{'address': '8740 Senger Light', 'location': {'lat': 29.76201824115939, 'lng': 65.36551291664728}, 'placeId': 'ChIJrTLr-GyuEmsRBfy61i59si0', 'region': 'PK'}",795.340.4196 x720,User,True
9865,2022-11-07T01:45:37.900Z,2022-12-23T20:27:20.833Z,Wilson28@gmail.com,f8wSjzCjaUCQmTxYlpR1A9JO6X0WOHlOatQ06VFJOaYfZO3Nro,Mya,Miller,M,(566) 815-0720,"{'address': '2921 Justice Vista', 'location': {'lat': 22.875284753588538, 'lng': 61.79374309620846}, 'placeId': 'ChIJrTLr-GyuEmsRBfy61i59si0', 'region': 'PK'}",1-544-492-0627 x0036,User,True
8289,2022-07-03T17:45:59.953Z,2022-12-09T12:04:28.237Z,Felipa86@hotmail.com,zh1oIYT6XyOX8dFFY8jBxIxMESUCFKF8MW5Cqh5WF2whHpPiJv,Lawrence,Kassulke,F,1-324-898-2272 x08667,"{'address': '649 Asa Hill', 'location': {'lat': 25.478042792289852, 'lng': 66.51646971464174}, 'placeId': 'ChIJrTLr-GyuEmsRBfy61i59si0', 'region': 'PK'}",811-541-4929,User,True
1577,2022-10-03T20:06:52.153Z,2023-05-09T14:14:06.908Z,Vallie_Shanahan56@gmail.com,9d53gqQ4srGGQodlZsekebtUPXvn7mUUUNIM4KpKmLvA30Y2km,Idella,Muller,M,813.920.7471 x5692,"{'address': '850 Ettie Crossing', 'location': {'lat': 29.547118179116694, 'lng': 59.063071314228864}, 'placeId': 'ChIJrTLr-GyuEmsRBfy61i59si0', 'region': 'PK'}",(773) 699-9295 x57417,User,True
8376,2022-07-27T19:29:29.395Z,2022-08-08T01:03:40.814Z,Leilani_Mills@gmail.com,4Q99j2duloGU5B66tGSlxtjWHHGKNY3igvOdU9vNLSPEg25dxg,Edna,Abshire,F,405.621.1310 x7049,"{'address': '34144 Heidenreich Greens', 'location': {'lat': 29.3925316886509, 'lng': 65.17622681634111}, 'placeId': 'ChIJrTLr-GyuEmsRBfy61i59si0', 'region': 'PK'}",554-398-6156 x1245,User,True
4676,2023-02-05T04:11:13.980Z,2023-04-13T04:54:14.283Z,Yadira78@yahoo.com,YBoCMl6FBewDxkFcm0XTClMnlyCOCE5ZHvM1PJAbEHRsWqqaZ7,Cara,Gislason,F,354-781-8908 x3135,"{'address': '697 Wunsch Mount', 'location': {'lat': 24.93942850964093, 'lng': 64.27793875562907}, 'placeId': 'ChIJrTLr-GyuEmsRBfy61i59si0', 'region': 'PK'}",591-816-8630,User,True
1209,2022-07-06T12:15:59.005Z,2022-07-19T00:43:56.646Z,Mariah83@hotmail.com,M6GDMoInRq69kgowAHVi4jAqbDVmKF3SeJJoIItzYWCIDoN2jR,Jaqueline,MacGyver,F,(458) 382-9835 x4338,"{'address': '268 Dagmar Plaza', 'location': {'lat': 26.209940274261957, 'lng': 66.2974980107673}, 'placeId': 'ChIJrTLr-GyuEmsRBfy61i59si0', 'region': 'PK'}",747.569.4712,User,True
6868,2022-08-16T05:26:33.424Z,2023-05-07T20:50:29.081Z,Christ_Miller95@hotmail.com,NitTr3oRZ4NFdyX6l0sJP1CkPfl6XiOaDw73dLAd3fFKkHVRUb,Dagmar,Sporer,F,(665) 618-0329 x64751,"{'address': '96517 Lue Gateway', 'location': {'lat': 23.404754993192284, 'lng': 74.5444718864727}, 'placeId': 'ChIJrTLr-GyuEmsRBfy61i59si0', 'region': 'PK'}",1-817-698-5544 x910,User,True
3736,2023-04-28T17:26:53.054Z,2023-02-12T06:33:09.055Z,Giles.Kuhlman@hotmail.com,lF4TzPsV4hcrhmJn4Gd568JhkUDXKMSexN8PT1b22K0HYjeppp,Mazie,Russel,M,1-258-497-0793,"{'address': '362 Frieda Harbors', 'location': {'lat': 24.44338407707994, 'lng': 67.892652486364}, 'placeId': 'ChIJrTLr-GyuEmsRBfy61i59si0', 'region': 'PK'}",(670) 214-6827 x75408,User,True
188,2022-11-15T09:02:00.363Z,2023-02-03T17:53:42.754Z,Francesca_Kris@yahoo.com,6OSKIHnq1rKqfXuR1Tl3kocGK7C9KHZJ9rnYjswEo5OL84jq9g,Effie,Schamberger,F,(611) 484-0394 x05763,"{'address': '278 Mayert Glen', 'location': {'lat': 25.735992188781, 'lng': 72.16081177696242}, 'placeId': 'ChIJrTLr-GyuEmsRBfy61i59si0', 'region': 'PK'}",980.729.5702 x3773,User,True
7354,2022-06-16T21:20:04.748Z,2022-06-06T19:55:56.032Z,Emilio69@gmail.com,oqGYpIsFJSknFKuwxKP1GEEwtPfnZfkPP7cQkrwvAfAwJSjjTS,Nolan,Wintheiser,M,545.388.8842 x91016,"{'address': '700 Koelpin Valley', 'location': {'lat': 24.245490898306084, 'lng': 67.27865244823772}, 'placeId': 'ChIJrTLr-GyuEmsRBfy61i59si0', 'region': 'PK'}",410-779-6692 x6274,User,True
3717,2022-12-02T03:41:38.911Z,2022-10-15T08:39:54.261Z,Breanne_Medhurst@gmail.com,mudH59wW9Lg8Rrv1ZIvVl0aflA6Fj6IHxHFwUyuN4BBHxu4GBP,Gunnar,Windler,F,238-614-0431 x1517,"{'address': '897 Koch Ville', 'location': {'lat': 20.106180004903194, 'lng': 72.88678757235675}, 'placeId': 'ChIJrTLr-GyuEmsRBfy61i59si0', 'region': 'PK'}",(295) 499-4120 x50625,User,True
2797,2023-01-01T13:02:38.873Z,2023-03-31T16:54:56.133Z,Isobel.Williamson@hotmail.com,K7uVMHYXZRj6vk9RdMZMw7KPFcazsYlVmNRzIk7JmV0gopCYmP,Ariel,Macejkovic,M,1-667-694-3642 x9064,"{'address': '566 Cora Center', 'location': {'lat': 16.73479932027133, 'lng': 70.81125045829322}, 'placeId': 'ChIJrTLr-GyuEmsRBfy61i59si0', 'region': 'PK'}",946.583.7482,User,True
4074,2023-05-12T15:02:31.214Z,2022-10-17T17:41:04.648Z,Sophie_Maggio@gmail.com,amgyZlcRCZVr3LeXZs0Ou0QyZs4OKMlbBM87vUzNOoR1FW6qcp,Gerald,Schmeler,M,1-703-916-5178,"{'address': '232 Lessie Fork', 'location': {'lat': 24.756336844250296, 'lng': 66.56100586942489}, 'placeId': 'ChIJrTLr-GyuEmsRBfy61i59si0', 'region': 'PK'}",1-819-319-3757,User,True
9453,2023-05-23T23:08:47.613Z,2023-01-16T04:11:05.302Z,Pauline.Greenfelder86@yahoo.com,icHZ7ZPZaSINrmwraEdeN3Cmf3Zb6g6VbMBtRBS6nZyiDLMl7t,Freddy,Hickle,F,772.324.2579,"{'address': '5727 Hazel Light', 'location': {'lat': 32.36671562196236, 'lng': 72.52582365262003}, 'placeId': 'ChIJrTLr-GyuEmsRBfy61i59si0', 'region': 'PK'}",559-356-0707 x724,User,True
2900,2023-02-19T21:12:06.565Z,2022-12-06T14:44:30.028Z,Edison53@hotmail.com,c25aN917S0tv1h6dfFS9aKW7KOt6Zex7lhtoHmwBL04Q0WrdB1,Olin,Hettinger,M,499-208-2731,"{'address': '8612 Aliya Haven', 'location': {'lat': 22.646801188629215, 'lng': 77.83934598532687}, 'placeId': 'ChIJrTLr-GyuEmsRBfy61i59si0', 'region': 'PK'}",271-401-0554,User,True
7674,2022-12-27T09:55:53.172Z,2022-09-04T00:01:53.168Z,Ephraim.Abernathy@hotmail.com,o2n4ZCsRZGJhoMO5h1IwZoYB4csqvFASAqhn12M6DyXc7s4ruS,Concepcion,Huels,M,1-203-730-5130 x08727,"{'address': '1461 Skiles Drive', 'location': {'lat': 26.314755031417235, 'lng': 55.194848692533924}, 'placeId': 'ChIJrTLr-GyuEmsRBfy61i59si0', 'region': 'PK'}",444.815.6948 x076,User,True
9529,2022-07-04T12:55:11.594Z,2022-07-13T01:32:28.417Z,Dangelo13@hotmail.com,9NjHaxr17vo2ebTYfttDZLiwzQKfBuHvCfbDHhaGcCsihYiSKe,Leonie,Paucek,M,545.393.5622,"{'address': '395 Bechtelar Garden', 'location': {'lat': 20.57387619210616, 'lng': 61.34431860865129}, 'placeId': 'ChIJrTLr-GyuEmsRBfy61i59si0', 'region': 'PK'}",(753) 738-2907 x955,User,True
1944,2022-10-28T17:26:33.508Z,2023-02-11T17:45:15.931Z,Demetrius.Lang@hotmail.com,HEeYp3YwD8H48bWdpjJti37cMubSqfjSfzEjOp3yHT7qyPaqSV,Carli,Little,F,788-701-2333 x345,"{'address': '84751 Gusikowski Via', 'location': {'lat': 23.19348720106351, 'lng': 67.61926005603732}, 'placeId': 'ChIJrTLr-GyuEmsRBfy61i59si0', 'region': 'PK'}",282.239.8201,User,True
6665,2022-08-12T09:06:47.998Z,2022-08-04T20:26:54.515Z,Chloe_Schumm99@hotmail.com,Xt3tc4UDU8byeiz2lZn0dPZVMHuj8a2knWzG9bpYWr0rchzyR2,Rosalia,Olson,F,1-419-305-9086 x941,"{'address': '5991 Chaya Burgs', 'location': {'lat': 25.614902624738622, 'lng': 71.45078538376856}, 'placeId': 'ChIJrTLr-GyuEmsRBfy61i59si0', 'region': 'PK'}",1-352-970-5093 x391,User,True
4110,2023-01-08T16:36:27.401Z,2022-07-05T08:36:46.492Z,Alanis66@gmail.com,pyhB0QEqORro4Sq08CLJckrN60pmQ9NDHlP4QGCYgRgJxt8o3V,Yazmin,Grady,M,265-572-9321 x32752,"{'address': '153 Kaya Viaduct', 'location': {'lat': 10.815102338767826, 'lng': 69.06560685802515}, 'placeId': 'ChIJrTLr-GyuEmsRBfy61i59si0', 'region': 'PK'}",1-934-928-2108,User,True
3917,2022-12-24T03:35:50.028Z,2022-06-21T02:18:29.709Z,Constance1@gmail.com,ge4XKUj9RTZs6pulP36RSVDQ5YAnNBSY69T8HIcI9VNFuX18lk,Reuben,Koepp,F,(221) 215-6501 x554,"{'address': '267 Pagac Union', 'location': {'lat': 26.940064401309588, 'lng': 58.00094726595944}, 'placeId': 'ChIJrTLr-GyuEmsRBfy61i59si0', 'region': 'PK'}",246.363.5991,User,True
7075,2023-04-21T16:04:55.805Z,2022-07-04T06:26:52.312Z,Kenyatta82@gmail.com,piQjjB16PY8QxF94VsLyNygHkisLgILHhofBqJNmKCEsDEb257,Isac,Weimann,F,827.480.3782 x9911,"{'address': '101 Schaefer Rest', 'location': {'lat': 29.109625699068655, 'lng': 77.5431207673114}, 'placeId': 'ChIJrTLr-GyuEmsRBfy61i59si0', 'region': 'PK'}",918-479-0725 x556,User,True
8043,2023-04-29T19:26:20.371Z,2022-07-01T17:34:00.517Z,Miles10@hotmail.com,KBrP0H7UVb9yoN9PnGADZSQJ97XYe1lNygk8J53k1h8UcSNKgz,Logan,Gleason,F,551.291.9094 x77401,"{'address': '1764 Kelsi Heights', 'location': {'lat': 25.916472690829707, 'lng': 71.64363404227947}, 'placeId': 'ChIJrTLr-GyuEmsRBfy61i59si0', 'region': 'PK'}",808.345.3522 x88142,User,True
8204,2023-05-28T19:44:02.289Z,2022-09-20T18:15:57.477Z,Houston.Ward66@yahoo.com,rKpTOt98W9EtfEIVGE8Ri69umO3VivrlkPnK4Jp66daCAjLUeX,Celine,Frami,M,(819) 710-9962 x6500,"{'address': '4381 Fahey Turnpike', 'location': {'lat': 17.117747553994228, 'lng': 60.69447942293152}, 'placeId': 'ChIJrTLr-GyuEmsRBfy61i59si0', 'region': 'PK'}",(890) 824-1191 x3421,User,True
6253,2022-06-10T18:21:15.271Z,2023-04-19T23:28:27.362Z,Dean37@yahoo.com,W6oDuLf74YFlSCSBPgj8S1WXg5jKzs2e2AowtaLOqtBDOHHLks,Ramiro,O'Connell,M,1-819-562-1168 x6259,"{'address': '17531 McGlynn Rue', 'location': {'lat': 18.54127360183415, 'lng': 69.14746694758242}, 'placeId': 'ChIJrTLr-GyuEmsRBfy61i59si0', 'region': 'PK'}",510.268.3606 x72666,User,True
3926,2023-04-27T04:29:27.903Z,2022-10-24T22:06:52.223Z,Pearline_Koss75@hotmail.com,xz98sChhqz9cW8pvNhlr6qHXIkSSbPCmgDtK47VifPSVPRG1fm,Caterina,Grant,M,261.537.3253 x922,"{'address': '7723 Wolf Garden', 'location': {'lat': 16.49926705761081, 'lng': 55.81635979628129}, 'placeId': 'ChIJrTLr-GyuEmsRBfy61i59si0', 'region': 'PK'}",(366) 685-0811 x505,User,True
9417,2023-04-26T08:55:11.891Z,2023-02-26T11:39:01.407Z,Herminia_Kub14@gmail.com,7A8wVG8ywSOpKK3ccbJckW6UXpvB74V7pfXON61JOW2H7JMF7O,Juvenal,Leffler,M,370-214-2089 x487,"{'address': '46152 Kozey Park', 'location': {'lat': 20.796127798042956, 'lng': 70.39508637921585}, 'placeId': 'ChIJrTLr-GyuEmsRBfy61i59si0', 'region': 'PK'}",650.481.9078 x3311,User,True
5049,2022-12-28T00:12:52.331Z,2022-08-10T05:12:55.804Z,Alexa.Kub@hotmail.com,3afVaE0bixkIOxQK774sX5MV68q4hlWm6H4xYJvgEmlUcVXaob,Ana,Toy,M,1-256-779-7394 x46672,"{'address': '43543 Alexandra Mount', 'location': {'lat': 10.47238865510605, 'lng': 66.65414525974836}, 'placeId': 'ChIJrTLr-GyuEmsRBfy61i59si0', 'region': 'PK'}",870-886-4785 x833,User,True
5553,2022-06-14T03:32:02.018Z,2022-10-25T01:18:01.745Z,Kobe.Jenkins-Baumbach36@yahoo.com,p3u6ehbcKLliwQ37R4KEkZCEoKlHU8KMlToolT9oTFNbsewPOb,Lon,Keeling,M,1-422-377-7459 x11601,"{'address': '2793 Howell Rue', 'location': {'lat': 17.090610397292163, 'lng': 64.94599028666164}, 'placeId': 'ChIJrTLr-GyuEmsRBfy61i59si0', 'region': 'PK'}",396-736-8731,User,True
8318,2023-03-29T05:06:17.296Z,2022-11-29T17:32:36.195Z,Loraine.Cronin@gmail.com,qAUPYmjb2xsYb4RxIRf0A9E2f4Rf80xf2w9ZrH3fEjrIK55cQg,Roberto,Farrell,M,1-964-560-1256 x332,"{'address': '8844 McCullough Wells', 'location': {'lat': 19.565368919798814, 'lng': 62.27622495951664}, 'placeId': 'ChIJrTLr-GyuEmsRBfy61i59si0', 'region': 'PK'}",618-297-7045 x68461,User,True
7155,2023-03-21T15:00:30.248Z,2022-10-31T06:02:35.294Z,Rupert65@yahoo.com,1S1g2fILepS2sPSsXyx1QtqtV5pcpyPbTSNHTWks78p6pwst8e,Dayna,Schumm,M,1-725-938-7331,"{'address': '68471 Savanna Point', 'location': {'lat': 25.560592480991037, 'lng': 69.01476286951856}, 'placeId': 'ChIJrTLr-GyuEmsRBfy61i59si0', 'region': 'PK'}",1-825-560-0963 x459,User,True
1483,2023-01-08T11:57:59.326Z,2022-09-19T02:10:54.065Z,Isabelle79@gmail.com,V4PRZzmCtW969LEIjMqXqTArN3Vr9v7IDLoUvox352CFRMWs1I,Elsa,Howe,F,438.209.5190 x58740,"{'address': '789 Eda Crescent', 'location': {'lat': 20.076752906463156, 'lng': 68.33380974915372}, 'placeId': 'ChIJrTLr-GyuEmsRBfy61i59si0', 'region': 'PK'}",(538) 273-2648 x909,User,True
1116,2022-06-21T21:09:28.545Z,2022-07-21T10:16:11.468Z,Salvador6@gmail.com,jIvBoyMOOep9M0c2IxWX6vVGY7hiOHmTrsQfgLIvgoOHVFGqUP,Dexter,Franecki,F,1-527-202-9377,"{'address': '3183 Hildegard Fords', 'location': {'lat': 13.517627379879166, 'lng': 62.80378835426541}, 'placeId': 'ChIJrTLr-GyuEmsRBfy61i59si0', 'region': 'PK'}",355.507.0671 x3358,User,True
6501,2022-11-18T13:25:10.657Z,2023-02-25T16:44:04.227Z,Flavie.Orn34@yahoo.com,GmW2cosH7VxepyHlCsd2yVw1Ta0ayXiaaodIDGjVBFoUyqefTB,Kiana,Romaguera,M,1-866-419-1607 x5521,"{'address': '3214 Hahn Ports', 'location': {'lat': 27.284634219714434, 'lng': 69.51344333596148}, 'placeId': 'ChIJrTLr-GyuEmsRBfy61i59si0', 'region': 'PK'}",(681) 627-6011 x7241,User,True
109,2022-10-15T14:24:25.382Z,2022-11-15T03:13:58.667Z,Makenzie_Kunze54@hotmail.com,S8wbcHxMP3vqPoaiuUZkbS046w6IYQKEeQelrQnxrEmPvFTghy,Vicente,Hyatt,M,1-778-431-4962,"{'address': '53511 Ardith Wall', 'location': {'lat': 15.717014908360262, 'lng': 64.84599367097621}, 'placeId': 'ChIJrTLr-GyuEmsRBfy61i59si0', 'region': 'PK'}",386.867.4560 x8080,User,True
6726,2023-03-07T17:52:27.017Z,2022-08-25T16:43:05.296Z,Miguel34@hotmail.com,v0i0jTNG5tTqwsa0HF5vqgeUoKgCSC4BAJFudHkrwMUS8mWKyK,Leanne,Feil,M,1-260-762-5961 x6970,"{'address': ""493 O'Kon Passage"", 'location': {'lat': 23.551247068924294, 'lng': 52.68720887174595}, 'placeId': 'ChIJrTLr-GyuEmsRBfy61i59si0', 'region': 'PK'}",419.649.1886 x28949,User,True
5526,2023-02-02T02:39:42.131Z,2022-07-16T23:35:22.245Z,Shea_Witting61@gmail.com,JzZ15UKRDL1j2OoI1oq34xpx7MoBM3i7D2oQxCAAK7wAopiZfS,Michel,Toy,F,(541) 518-1748 x627,"{'address': '81310 Klein Estate', 'location': {'lat': 24.372524059237396, 'lng': 66.83291120123954}, 'placeId': 'ChIJrTLr-GyuEmsRBfy61i59si0', 'region': 'PK'}",1-236-338-0576,User,True
79,2022-10-24T22:09:36.485Z,2023-03-30T21:52:15.330Z,Myrtis.VonRueden52@yahoo.com,ONEc0mqDqcVPq8Qeloa0IUZtAiNzssiI2KM8lihJ3UQEgW7iZk,Justina,Boyer,F,(375) 794-5116 x58272,"{'address': '1623 Pollich Radial', 'location': {'lat': 28.79487629526141, 'lng': 62.23466048281341}, 'placeId': 'ChIJrTLr-GyuEmsRBfy61i59si0', 'region': 'PK'}",925-729-4201 x3890,User,True
4962,2023-03-31T06:08:38.073Z,2022-11-08T20:01:39.911Z,Elouise13@gmail.com,Ty79K5mjS5NZJ3G96DTR1Qn7nabSIkfKHoi4kw3raaCnuwpxvX,Aisha,Leffler,M,801-577-8556 x9444,"{'address': '159 Bartoletti Heights', 'location': {'lat': 29.66152259875747, 'lng': 69.7676580934185}, 'placeId': 'ChIJrTLr-GyuEmsRBfy61i59si0', 'region': 'PK'}",1-903-713-1863,User,True
9406,2023-02-03T07:02:50.428Z,2022-11-16T03:21:18.067Z,Will.Stark59@yahoo.com,Z3RD1Fg6eNlIc0V85kfHKaF77mK16JfWkez5A5Lcyv5ikvIWtg,Eulah,Gottlieb,M,(285) 891-4570 x80644,"{'address': '3100 Blick Mill', 'location': {'lat': 23.17943758355202, 'lng': 59.224470592971784}, 'placeId': 'ChIJrTLr-GyuEmsRBfy61i59si0', 'region': 'PK'}",987.359.9944,User,True
3284,2022-07-27T04:15:58.355Z,2022-06-08T12:53:41.125Z,Kaya.Bruen@hotmail.com,Liea81kWCATdhs8RqCNnQzdH4tGne16SaEzDZwFBwkDSAZcv90,Jermaine,Kuhlman,F,(803) 210-2694 x493,"{'address': '7253 Schaden Land', 'location': {'lat': 36.62409944786781, 'lng': 60.55082138385217}, 'placeId': 'ChIJrTLr-GyuEmsRBfy61i59si0', 'region': 'PK'}",(576) 628-7193,User,True
4217,2022-06-10T16:08:43.800Z,2023-04-04T11:47:29.826Z,Brain12@hotmail.com,DHSWQlbGwQuT13AdRZy5iRJb4MJFabob8oYP2MpQ6xHztzH3OZ,Josue,Price,M,887.949.1615 x1451,"{'address': '78873 Cyril Haven', 'location': {'lat': 29.882346784722532, 'lng': 75.38817191101998}, 'placeId': 'ChIJrTLr-GyuEmsRBfy61i59si0', 'region': 'PK'}",(477) 351-5487 x473,User,True
5310,2023-04-16T08:02:48.640Z,2023-02-16T15:03:24.890Z,Luna.Cassin15@yahoo.com,ppirP2ZimQVUOv1AYLBPH58aytIsTQARaze8J5gLDqxTvYJSmH,Lorenz,Keeling,F,(955) 620-2878 x0750,"{'address': '10518 Tyree Expressway', 'location': {'lat': 26.395602782906213, 'lng': 69.63293300696932}, 'placeId': 'ChIJrTLr-GyuEmsRBfy61i59si0', 'region': 'PK'}",504.959.4943,User,True
7191,2023-05-22T14:45:15.662Z,2022-12-11T17:16:41.262Z,Joanie.Paucek@hotmail.com,6QqFrRiKIqm8DqJUPQBW5g8qmYLl4VFfNfexX2zqF5YO3QGOPk,Jalen,Leffler,M,1-231-268-0311 x5666,"{'address': '1199 Kallie Inlet', 'location': {'lat': 25.281899368728705, 'lng': 65.56008992135185}, 'placeId': 'ChIJrTLr-GyuEmsRBfy61i59si0', 'region': 'PK'}",(870) 891-5793 x19254,User,True
5764,2022-12-23T10:18:58.302Z,2022-07-09T00:12:28.288Z,Lucious.Stamm44@yahoo.com,mipcvNUJe9QqH1Fl1ZVXpw0XHyHuXTwmIrB6y8xXTNLc8ebu5t,Kade,O'Conner,F,1-729-569-0018 x08798,"{'address': '626 Nico Prairie', 'location': {'lat': 29.8458843447563, 'lng': 63.997404362145176}, 'placeId': 'ChIJrTLr-GyuEmsRBfy61i59si0', 'region': 'PK'}",(491) 829-7589 x8457,User,True
8870,2023-05-30T04:46:38.393Z,2022-07-14T06:01:05.579Z,Shany_Boyle17@gmail.com,QdZA3PTJw0Vh7gaWnG6pF9C9mKzXOQ0LpYlNYaFKniJQqZNI5Q,Rita,Oberbrunner,F,(742) 592-5738 x3411,"{'address': '521 Pacocha Highway', 'location': {'lat': 25.13787987321529, 'lng': 65.99892378438858}, 'placeId': 'ChIJrTLr-GyuEmsRBfy61i59si0', 'region': 'PK'}",(516) 881-6842 x0999,User,True
8009,2023-05-04T15:48:22.449Z,2022-11-26T04:11:29.696Z,Vallie87@hotmail.com,ujYaXtZqqr258mVsVUijQHNxldjG5cnNkAT3USkzsCImQ0lyBV,Concepcion,Schuster,M,324-214-2331 x28937,"{'address': '274 Stamm Manor', 'location': {'lat': 22.310140626806916, 'lng': 69.65356242755684}, 'placeId': 'ChIJrTLr-GyuEmsRBfy61i59si0', 'region': 'PK'}",631-669-9459,User,True
8780,2023-01-10T04:39:53.375Z,2022-12-12T10:38:21.293Z,Chaz_Walker21@hotmail.com,1pYG9uhAIIQGIhZDVd71o3sVncIPqRTsdRFLrW375YoPwamP4v,Briana,Hagenes,M,1-653-714-5033 x97198,"{'address': '650 Hayley Alley', 'location': {'lat': 31.78739293946038, 'lng': 72.91068426659092}, 'placeId': 'ChIJrTLr-GyuEmsRBfy61i59si0', 'region': 'PK'}",943.539.8046 x8575,User,True
7161,2022-11-24T04:34:47.475Z,2023-05-15T19:14:40.694Z,Holden22@hotmail.com,0AY50FCCEDRH6FzOiwFLdmDChUxAwwsUGM5zqcUhbX8gXSRb47,Juliana,Bashirian,M,1-760-766-2596 x8033,"{'address': '2916 Ledner Green', 'location': {'lat': 33.42474432414587, 'lng': 70.70118978657308}, 'placeId': 'ChIJrTLr-GyuEmsRBfy61i59si0', 'region': 'PK'}",1-324-975-9858 x544,User,True
1586,2022-10-28T19:49:32.747Z,2023-05-30T20:49:07.753Z,Hollie_Runolfsson78@hotmail.com,B2CeZJJ8NuseL3e0WLOizXPljRG4DEdHkFkR046BHz5p0PlHcG,Giovani,Funk,M,863.479.3043 x0101,"{'address': '61037 Wilton Ports', 'location': {'lat': 27.3380236034204, 'lng': 68.95273073938097}, 'placeId': 'ChIJrTLr-GyuEmsRBfy61i59si0', 'region': 'PK'}",1-347-836-0150,User,True
1229,2023-03-24T21:15:35.909Z,2022-11-14T17:21:44.697Z,Ines.Collins@yahoo.com,Tm0M019N1GO055st2OCmMHWPd2z10zOBiHEh77Ggtt9Mr60pHz,Mara,Homenick,F,(810) 470-5621 x470,"{'address': '68639 Osinski Mount', 'location': {'lat': 29.407183479530325, 'lng': 65.59174990616873}, 'placeId': 'ChIJrTLr-GyuEmsRBfy61i59si0', 'region': 'PK'}",268-383-9699 x98506,User,True
4875,2023-04-26T14:57:12.123Z,2022-12-24T05:22:56.020Z,Kaia83@gmail.com,LduLn1QWdwgQ69AIjP7kmayDXaSYEvJ2MiNtU2ouwfOLbHAfaf,Mellie,Considine,F,1-594-930-1580 x89264,"{'address': '2174 Lind Motorway', 'location': {'lat': 29.862191395492417, 'lng': 64.83292059601126}, 'placeId': 'ChIJrTLr-GyuEmsRBfy61i59si0', 'region': 'PK'}",410.708.5694 x8860,User,True
7934,2023-05-13T03:23:02.736Z,2023-01-28T20:54:42.355Z,Oleta_Graham97@gmail.com,HttWp1iJyzcjswViM3ziQ7twItj6Rd6JLxkljOvvY6XJbL9m3W,Nikki,Kuhlman,M,(605) 256-4478 x101,"{'address': '807 Durgan Ferry', 'location': {'lat': 12.856747035605732, 'lng': 68.66544038882171}, 'placeId': 'ChIJrTLr-GyuEmsRBfy61i59si0', 'region': 'PK'}",1-763-348-7759 x6784,User,True
7157,2022-06-22T12:49:54.403Z,2022-06-09T17:41:31.830Z,Raven_Ondricka@gmail.com,jWtGXFizKFlj7eac4JXYlVagzDiP276wSqls9pWHv2OZGbrrCf,Thaddeus,Jones,M,842.592.6041 x4188,"{'address': '184 Luciano Camp', 'location': {'lat': 30.074882526314546, 'lng': 75.25426121745306}, 'placeId': 'ChIJrTLr-GyuEmsRBfy61i59si0', 'region': 'PK'}",(613) 989-3379 x475,User,True
8324,2023-02-24T15:05:00.627Z,2022-12-26T08:47:23.155Z,Lukas.Cartwright@yahoo.com,imZ62X1C2CofnCIhZ5u8jASGfmBT6urINL626nQIgqLGfZAQMV,Watson,Erdman,M,557.215.0259 x549,"{'address': '44638 Kiehn Coves', 'location': {'lat': 16.184222720406645, 'lng': 71.03242642303132}, 'placeId': 'ChIJrTLr-GyuEmsRBfy61i59si0', 'region': 'PK'}",1-863-856-8199 x0490,User,True
3265,2023-03-06T19:14:26.848Z,2022-06-13T08:55:10.162Z,Verner41@yahoo.com,SRjUxNzHugt6PspX6UBEr86yx7pQb79DJLX3zNNIKP7jpleSpj,Dahlia,Rowe,F,336-245-6938,"{'address': '42575 Waters Bypass', 'location': {'lat': 30.076586391035175, 'lng': 64.47810566634257}, 'placeId': 'ChIJrTLr-GyuEmsRBfy61i59si0', 'region': 'PK'}",939.721.1758 x694,User,True
4146,2023-03-23T02:34:01.806Z,2023-05-07T06:34:02.429Z,Alf.Leuschke59@hotmail.com,Z0jj0ioHLcMQ0Kmhnuarc09jjftChOEgJWPwXQ4kL93VHFEaPz,Audra,Balistreri,M,(369) 932-0365 x414,"{'address': '79593 Mills Gardens', 'location': {'lat': 23.770387526417224, 'lng': 66.93355727760706}, 'placeId': 'ChIJrTLr-GyuEmsRBfy61i59si0', 'region': 'PK'}",(761) 373-8183 x4672,User,True
2065,2023-04-04T21:31:45.408Z,2023-03-25T20:27:02.013Z,Einar74@gmail.com,39y3XW2uDsKp8nHlEVMRxI6rnAuJUPqt5Qu8x0oaTApprILAZe,Berniece,Franecki,F,984.400.5737 x4341,"{'address': '82177 Weber Heights', 'location': {'lat': 25.66281950987719, 'lng': 66.92289263843725}, 'placeId': 'ChIJrTLr-GyuEmsRBfy61i59si0', 'region': 'PK'}",1-441-349-0512 x78801,User,True
9824,2023-01-25T04:36:58.837Z,2022-08-14T13:26:48.628Z,Alexandria73@hotmail.com,EX5trriFiCgLTH7jho4n9cYk7uSo9Qnt0WjlAXsdlh62jGFO0m,Stacey,Funk-Klein,F,1-913-583-6883,"{'address': '43571 Douglas Villages', 'location': {'lat': 25.97590526751688, 'lng': 66.25870688930945}, 'placeId': 'ChIJrTLr-GyuEmsRBfy61i59si0', 'region': 'PK'}",(508) 223-9961 x58620,User,True
7703,2022-10-27T00:39:19.386Z,2022-11-07T09:46:44.018Z,Jazmyn21@hotmail.com,Y3UzoPQ3AN4Hdg6ym4X93ua9axAaap3sR6cJrENTDQFTw2mf1o,Kendrick,Tillman,M,450-434-9144 x59174,"{'address': '97896 Schmidt Expressway', 'location': {'lat': 25.124740651418378, 'lng': 67.2726925968168}, 'placeId': 'ChIJrTLr-GyuEmsRBfy61i59si0', 'region': 'PK'}",1-592-922-7677,User,True
5842,2023-03-28T13:44:21.566Z,2022-12-15T10:30:53.346Z,Chance_Huel@hotmail.com,FAZMjd3H6lgjhsktRNuRpEvrhvM1OV7X2ix16mUq8tcryEXzj7,Cyrus,Leannon,M,(957) 275-5568 x13542,"{'address': '90701 Jones Shores', 'location': {'lat': 28.03831330676699, 'lng': 66.29184618248746}, 'placeId': 'ChIJrTLr-GyuEmsRBfy61i59si0', 'region': 'PK'}",1-631-786-6757 x4087,User,True
9937,2023-04-01T10:33:20.150Z,2022-06-03T05:12:37.363Z,Cristopher_Schowalter79@hotmail.com,QxFKX2QJ2sgPs4Ze7zwT1hF2nDtaeWssea6UHobvhEknbdGcHj,Suzanne,Boehm,F,845.532.7785 x61978,"{'address': '799 Montana Prairie', 'location': {'lat': 24.55497916925372, 'lng': 66.97695337202447}, 'placeId': 'ChIJrTLr-GyuEmsRBfy61i59si0', 'region': 'PK'}",1-485-430-6992 x64214,User,True
7287,2023-05-25T18:25:34.412Z,2022-10-29T09:40:05.872Z,Joe83@gmail.com,kLjc3D9D8LOVUaLdqvdYZKeQU14LXQnoy765pN5DzpDIz99yLB,Anika,Wunsch-Ankunding,F,1-358-840-9873 x433,"{'address': '3086 Aleen Stream', 'location': {'lat': 23.654509776731143, 'lng': 66.43439955857059}, 'placeId': 'ChIJrTLr-GyuEmsRBfy61i59si0', 'region': 'PK'}",769-226-4777 x4021,User,True
1623,2023-05-01T00:10:31.176Z,2022-08-11T23:17:23.195Z,Kariane45@yahoo.com,PKCzogWnyMldncri2ic09UtfvSE12HdmuBgnvpLTxvm1Txcxpi,Tressie,Olson,M,1-588-657-9587 x6130,"{'address': '201 Labadie Parkways', 'location': {'lat': 21.457644659893507, 'lng': 69.29569310098123}, 'placeId': 'ChIJrTLr-GyuEmsRBfy61i59si0', 'region': 'PK'}",476.666.8266 x21916,User,True
6688,2023-05-10T08:25:35.696Z,2023-04-24T10:51:02.650Z,Laury94@gmail.com,a9Ptn6v0YGfuczNL3hkIrOBUBzNHKh8I3I9SeLRv1CdcDCwSyk,Danial,Blick,M,212-981-9405,"{'address': '641 Daniel Cape', 'location': {'lat': 25.325998405903434, 'lng': 71.42853407959626}, 'placeId': 'ChIJrTLr-GyuEmsRBfy61i59si0', 'region': 'PK'}",314.630.1070 x7113,User,True
5308,2023-01-18T01:34:32.740Z,2023-04-19T09:42:54.425Z,Kassandra.Schmeler35@hotmail.com,GB2pM4CPvV30qckkdqzRmdMlX20IRMoyAZO6bIEwCLKqIlgZBt,Jamil,Rohan,F,303.613.6789 x157,"{'address': '44103 Ari Station', 'location': {'lat': 14.013225523553167, 'lng': 65.44014758881815}, 'placeId': 'ChIJrTLr-GyuEmsRBfy61i59si0', 'region': 'PK'}",(733) 645-6344,User,True
8772,2022-09-25T10:36:06.204Z,2023-01-15T10:19:18.617Z,Mathew_Aufderhar71@hotmail.com,8qaPCYc9F2JsSgYbOpBljLfsIHNA4cfwcwxCHKK0nNGl7bTruh,Blanca,Rolfson,F,936.371.7803 x21030,"{'address': '65510 Alicia Mills', 'location': {'lat': 28.471748118824813, 'lng': 69.95780587807553}, 'placeId': 'ChIJrTLr-GyuEmsRBfy61i59si0', 'region': 'PK'}",878.538.9647 x609,User,True
3514,2022-11-11T21:35:28.913Z,2022-07-31T08:22:42.449Z,Lelia.Hirthe85@yahoo.com,AfKjfSE1DlFOSv9Mc0wFTGOj2llocK8DPKotrT02MqIZ0gwAHJ,Ryder,Bergnaum,M,1-679-580-5073 x3402,"{'address': '48376 Hunter Falls', 'location': {'lat': 23.47639636729072, 'lng': 66.52054614573012}, 'placeId': 'ChIJrTLr-GyuEmsRBfy61i59si0', 'region': 'PK'}",542-858-2922,User,True
3118,2023-05-31T09:36:34.848Z,2023-02-26T00:14:28.237Z,Hardy.Hammes@hotmail.com,q3CuMmIVKHGKTguWvWe8Rb6HZrfx3RRCgnUoQoJ8b1tuJjAr4b,Laron,Jacobi,F,959-234-9105 x685,"{'address': '80961 Jovani Branch', 'location': {'lat': 27.624322683556166, 'lng': 58.79245833533969}, 'placeId': 'ChIJrTLr-GyuEmsRBfy61i59si0', 'region': 'PK'}",1-665-843-9266 x00021,User,True
870,2022-11-22T05:57:37.493Z,2022-12-25T12:06:32.607Z,Ernestina66@yahoo.com,jiLpc12g292uSyrzEFd1LbQtYY3aCVEsvEGPntTsNxNH0QIs06,Mathew,Ortiz,F,(264) 562-4297 x78863,"{'address': '822 Jerde Ports', 'location': {'lat': 30.168090328291406, 'lng': 66.50895586122658}, 'placeId': 'ChIJrTLr-GyuEmsRBfy61i59si0', 'region': 'PK'}",272.501.7705,User,True
3209,2023-01-03T04:33:32.991Z,2023-05-24T14:10:50.872Z,Vernie.Kuhic27@hotmail.com,VpESsAWgEDsE2RZmBhyR0fk80zU00nyyvfpFcQNORrQjqJxWC4,August,Hermiston,M,782-559-3102 x8038,"{'address': '58682 Dena Squares', 'location': {'lat': 12.466385549309827, 'lng': 65.36356598967632}, 'placeId': 'ChIJrTLr-GyuEmsRBfy61i59si0', 'region': 'PK'}",734-226-4824,User,True
5951,2022-09-01T09:48:50.002Z,2023-05-11T11:03:55.637Z,Eudora85@yahoo.com,nzhuBndxcDqMNl7Ia2PiyKhHjgJwluYZMxeUTf1MzPA1hhZt7Y,Blake,Zieme,F,692.506.5182,"{'address': '1358 Dallin Gardens', 'location': {'lat': 29.03161730836493, 'lng': 65.38247342894203}, 'placeId': 'ChIJrTLr-GyuEmsRBfy61i59si0', 'region': 'PK'}",(847) 348-0526 x1146,User,True
4481,2022-09-27T16:47:28.880Z,2023-02-27T07:57:31.406Z,Ayla32@gmail.com,KJ6YDacbvxiCq3ZfEgWHn4d6T5ZEL4V0XszjNLaY2qxcaY5cWd,Abe,Cruickshank,F,1-470-223-4442 x734,"{'address': '5222 Waelchi Roads', 'location': {'lat': 22.360049978689414, 'lng': 69.02680124869482}, 'placeId': 'ChIJrTLr-GyuEmsRBfy61i59si0', 'region': 'PK'}",1-277-490-3108 x7412,User,True
8276,2022-12-15T18:20:10.604Z,2023-03-08T11:05:40.964Z,Jada_Hessel87@gmail.com,MkaPaRt7H08zG7hzp5B6ocyUmXr44t7t33HdIFEhcz55IHs1L6,Ronny,Johnston,F,(563) 869-3740 x648,"{'address': '98564 Collier River', 'location': {'lat': 25.01469473253961, 'lng': 64.96511281270648}, 'placeId': 'ChIJrTLr-GyuEmsRBfy61i59si0', 'region': 'PK'}",1-854-288-7304 x43948,User,True
4666,2023-01-06T06:32:52.692Z,2022-08-30T10:30:47.020Z,Nigel.Tremblay@hotmail.com,AtMUNFQWSa5qa0d834pXJt29OSI1ymR0QTJ8xzY3TrjdEJgXNg,Minerva,Keebler,F,793.887.1561 x373,"{'address': '837 Johnston Fork', 'location': {'lat': 32.9304472303472, 'lng': 75.62197416104709}, 'placeId': 'ChIJrTLr-GyuEmsRBfy61i59si0', 'region': 'PK'}",(364) 540-1248 x78189,User,True
2393,2022-07-08T08:40:14.213Z,2023-04-08T02:22:50.036Z,Sallie56@gmail.com,MnuPo8n08ENOYaX05piZP3RSv0Q8B3nE8mNdAzb5Ao9sPzZsjj,Stefan,Corkery,F,(225) 672-8356 x257,"{'address': '981 Cruickshank Common', 'location': {'lat': 27.484519858356368, 'lng': 66.54355924819856}, 'placeId': 'ChIJrTLr-GyuEmsRBfy61i59si0', 'region': 'PK'}",(236) 376-3065 x056,User,True
1681,2022-08-23T07:50:42.267Z,2023-05-09T14:17:59.324Z,Jamie3@gmail.com,kJOcnD0CHyRuMkfSLLN58WuAPD24bu0smdJZudZVOwS6oE7oF3,Rasheed,McKenzie,M,(646) 436-2234 x8033,"{'address': '96126 Hyatt Flat', 'location': {'lat': 27.486596050432865, 'lng': 73.31500474670497}, 'placeId': 'ChIJrTLr-GyuEmsRBfy61i59si0', 'region': 'PK'}",796-387-9337 x9563,User,True
93,2022-12-25T15:38:21.792Z,2023-05-18T13:38:19.292Z,June_Hessel96@hotmail.com,BWEbDcYfH1TmGMmcEHcmBnXX7dMVGPf4C9k9zoXcEw7r2fCaIb,Gail,Legros,M,(838) 394-9215 x51382,"{'address': '72550 Lina Brooks', 'location': {'lat': 38.096688203947835, 'lng': 61.89544203392916}, 'placeId': 'ChIJrTLr-GyuEmsRBfy61i59si0', 'region': 'PK'}",360-589-1373 x163,User,True
2663,2023-01-02T21:48:09.820Z,2023-01-22T20:25:52.661Z,Daniela68@yahoo.com,QKlEyDS3FRgDjFywJYDjocc6hN4VnCYoBFnR6q5wNWQSot46Re,Bartholome,McCullough,M,880-613-9886 x523,"{'address': '449 Katherine Meadow', 'location': {'lat': 23.36200591251319, 'lng': 67.43421653153973}, 'placeId': 'ChIJrTLr-GyuEmsRBfy61i59si0', 'region': 'PK'}",1-272-315-9710 x1180,User,True
2898,2022-12-17T10:28:05.634Z,2023-04-26T20:27:12.124Z,Darrin98@hotmail.com,FiSOvL3vIQEMZV20REoBeoEfDIvsf8jWXtuBDtGpCjbilv5cyN,Dolly,Satterfield,F,805.223.1158 x96907,"{'address': '3701 Kutch Cape', 'location': {'lat': 32.28195415916861, 'lng': 60.8006664679865}, 'placeId': 'ChIJrTLr-GyuEmsRBfy61i59si0', 'region': 'PK'}",(807) 944-5938 x2151,User,True
7766,2023-01-04T10:11:44.860Z,2022-08-11T05:53:46.792Z,Felton86@gmail.com,k1dfPo85FXpUt4YacNdpHHvuUDsZxjcuIYGQn3XgZPQBAKmMd2,Conrad,Rutherford,F,463.276.3334,"{'address': '10006 Ernesto Trafficway', 'location': {'lat': 25.951683840769334, 'lng': 62.240571678795504}, 'placeId': 'ChIJrTLr-GyuEmsRBfy61i59si0', 'region': 'PK'}",847.986.9963 x720,User,True
1681,2022-11-03T03:44:19.471Z,2022-06-12T06:35:25.642Z,Benny64@hotmail.com,u6zuEJ8yP6QJuXSxH0gmACADKpwvz36yLH7Y5gRBM47ToqWpXK,Martin,Hettinger,F,(825) 235-7879 x49992,"{'address': '95807 Harvey Trace', 'location': {'lat': 20.412883193634016, 'lng': 60.7918683667192}, 'placeId': 'ChIJrTLr-GyuEmsRBfy61i59si0', 'region': 'PK'}",(444) 966-0127 x10935,User,True
347,2022-09-13T15:45:48.757Z,2022-10-19T06:27:36.131Z,Bridgette_Schmeler81@yahoo.com,Rktc8Zqv5e8TCa7AG7JmACGAGlgB62mUtuL7hVLOFYhvuXzrXQ,Hope,Smitham,F,(379) 751-6252 x661,"{'address': '289 Elroy Pines', 'location': {'lat': 20.57896217902667, 'lng': 64.8703832515614}, 'placeId': 'ChIJrTLr-GyuEmsRBfy61i59si0', 'region': 'PK'}",1-244-566-3482 x70061,User,True
4315,2023-05-19T21:21:55.906Z,2022-09-26T01:30:24.774Z,Ferne83@yahoo.com,YE1AWJoJCAThKt1Xhi4mK1D9hHOtun2RJ7saKwigmEjuT2G2nM,Edgar,Morissette,M,1-858-497-0310,"{'address': '152 Tyson Trail', 'location': {'lat': 21.790868483941015, 'lng': 65.28316094062052}, 'placeId': 'ChIJrTLr-GyuEmsRBfy61i59si0', 'region': 'PK'}",1-782-880-7066,User,True
4248,2022-06-03T09:26:22.985Z,2022-11-28T21:45:14.363Z,Brennon67@gmail.com,sNC9KBB0984lG4rUrHSZDIqdTaLRky3DO0NbAFm0bx5LBDSctF,Aimee,MacGyver,M,659.348.2638 x708,"{'address': '74697 Shayna Spurs', 'location': {'lat': 24.26650530271058, 'lng': 67.9642041486386}, 'placeId': 'ChIJrTLr-GyuEmsRBfy61i59si0', 'region': 'PK'}",975.746.8983 x0501,User,True
4140,2023-01-17T17:28:10.367Z,2023-03-03T05:37:47.207Z,Nya_Marks59@gmail.com,LDcmHQDL261gvyFWcB3nWaseiVOMkd9gw7pPB4DYhIVAt9tkH6,Kyra,Jones,F,353.392.5876,"{'address': '626 Juana Branch', 'location': {'lat': 29.706004719306428, 'lng': 78.19170677840725}, 'placeId': 'ChIJrTLr-GyuEmsRBfy61i59si0', 'region': 'PK'}",(746) 837-9252 x220,User,True
7415,2022-09-09T13:42:07.499Z,2023-05-10T08:51:00.875Z,Addie.Feeney1@yahoo.com,2R7ufNO5bB2COmd6qj3CuvqMWJfhoTqnRoc7m5BmYoqI0bmp4a,Idella,Hahn,M,357.592.4455,"{'address': '92254 Merlin Crest', 'location': {'lat': 24.106683308329767, 'lng': 64.60007969662229}, 'placeId': 'ChIJrTLr-GyuEmsRBfy61i59si0', 'region': 'PK'}",1-340-260-0444 x3168,User,True
5985,2022-11-18T05:56:48.873Z,2022-07-14T17:00:56.718Z,Flo_Ratke@hotmail.com,Mdz64WVFLj9cKRWROQolBNiYvFMD5PKl5QAYNTgiAVHTHyR5OU,Emile,Flatley,M,823.942.4935,"{'address': '8863 Tessie Way', 'location': {'lat': 26.090727754090715, 'lng': 61.05610590765684}, 'placeId': 'ChIJrTLr-GyuEmsRBfy61i59si0', 'region': 'PK'}",1-548-927-5130 x042,User,True
2106,2022-06-11T15:26:02.375Z,2022-11-07T02:13:12.458Z,Adrien24@yahoo.com,XiZIL0IQxmdhmK8vtfKnheEE0zgIwb75DdO4gTv63QPx8zq3AD,Adolph,Hamill,M,1-361-736-5659 x5311,"{'address': '59358 Dibbert Drive', 'location': {'lat': 25.682209869473958, 'lng': 70.02272888775167}, 'placeId': 'ChIJrTLr-GyuEmsRBfy61i59si0', 'region': 'PK'}",1-442-338-1313 x8580,User,True
6534,2023-03-01T17:48:25.157Z,2022-09-28T07:34:28.659Z,Ernestine65@yahoo.com,XruLpFmQ5OtTyVdxXLk02iKa3RfDzpkUYwelXwWN3MH09N49VV,Grayce,Gutkowski,F,1-469-842-1948,"{'address': '35110 Rosenbaum Well', 'location': {'lat': 20.285366057805167, 'lng': 61.608234533800896}, 'placeId': 'ChIJrTLr-GyuEmsRBfy61i59si0', 'region': 'PK'}",406.490.7205 x201,User,True
9878,2022-10-23T11:11:37.065Z,2023-03-01T03:49:11.432Z,Lenna_Koss@yahoo.com,IHt2qJqrOF95IA1FQwepETcXAHanAYwEyuTPE7dstdpsoOKJt9,Timmy,Watsica,M,(215) 646-6349 x19976,"{'address': '828 Rempel Drives', 'location': {'lat': 18.219945340906882, 'lng': 60.19874033988572}, 'placeId': 'ChIJrTLr-GyuEmsRBfy61i59si0', 'region': 'PK'}",1-983-677-8614 x996,User,True
3537,2022-07-07T00:09:56.145Z,2023-01-22T20:23:21.536Z,Gerson.Zemlak32@yahoo.com,eSZ5rQ6Bkd9tuRfjSAhIIp1ogPQ0XGo9zmezbXzegytFQPBRFg,Foster,Runolfsdottir,M,796.682.0135 x606,"{'address': '113 Schamberger Hill', 'location': {'lat': 28.534050199476887, 'lng': 70.71150339251255}, 'placeId': 'ChIJrTLr-GyuEmsRBfy61i59si0', 'region': 'PK'}",1-664-633-7524 x1708,User,True
4309,2023-05-24T08:55:57.897Z,2022-09-26T01:04:03.086Z,Milan_Wunsch@gmail.com,h5I03R17aVDrIgxb4TYb6PAuskLMNltbLyZBn69FOHTLGVoEpl,Agnes,Volkman,F,(315) 849-3305 x124,"{'address': '14940 Braun Rapid', 'location': {'lat': 15.036087110051906, 'lng': 60.03532763489761}, 'placeId': 'ChIJrTLr-GyuEmsRBfy61i59si0', 'region': 'PK'}",1-733-690-9608 x9430,User,True
2316,2022-06-23T22:13:22.823Z,2022-10-30T03:09:03.982Z,Wyatt_Purdy@hotmail.com,zAr8AAg1kqgJfqQZOK4IDRW5QCBGXb0pcY3xjOV2Z11BQFZALC,Neva,Parker,M,412.720.5631 x330,"{'address': '3717 Conn Center', 'location': {'lat': 24.90401630382328, 'lng': 55.986633679118654}, 'placeId': 'ChIJrTLr-GyuEmsRBfy61i59si0', 'region': 'PK'}",506-409-5893 x51938,User,True
6516,2022-11-29T09:45:19.686Z,2023-03-28T11:40:02.317Z,Marietta.Marquardt58@yahoo.com,ZwQR1cegXI2PQrbjklP9PQlmowjGXwuSkOzyGjlspT096HY6Bv,Cletus,Mertz,M,451-377-3428 x8888,"{'address': '6409 Dorian Meadow', 'location': {'lat': 28.758010496113904, 'lng': 77.14390929129422}, 'placeId': 'ChIJrTLr-GyuEmsRBfy61i59si0', 'region': 'PK'}",658.429.2031 x5690,User,True
1260,2022-09-29T18:21:10.561Z,2022-07-02T01:37:50.416Z,Lazaro_Thiel@yahoo.com,qPZYn9nBWAP0mSP1lRUsGJw5rTmcebiKU8KmfytpJDZX9ruLB2,Isaac,Armstrong,F,831.512.9258 x17197,"{'address': '28651 Skiles Key', 'location': {'lat': 11.103431387459773, 'lng': 68.6335832552495}, 'placeId': 'ChIJrTLr-GyuEmsRBfy61i59si0', 'region': 'PK'}",(685) 876-3270 x2011,User,True
6466,2023-01-20T11:02:15.563Z,2022-08-27T13:45:19.013Z,Angel65@yahoo.com,IzcBxMgc8qiLeRF8Ot3AqJh0h9HQ45QQ9ezjUBi1NZwdxbsdKO,Bernie,Marquardt,F,(999) 337-6294 x6148,"{'address': '524 Mueller Course', 'location': {'lat': 23.473294019681795, 'lng': 69.73161769127819}, 'placeId': 'ChIJrTLr-GyuEmsRBfy61i59si0', 'region': 'PK'}",331.211.7879 x9334,User,True
9446,2023-01-25T06:54:21.660Z,2022-09-25T10:30:55.255Z,Dawson.OKeefe@gmail.com,vluGOtBa2EoYZTX4UJCCMDWf4lDV0PIfsGmODHBN2ORR4UwLkU,Christina,Christiansen,F,388-698-4558 x59372,"{'address': '39235 Wiegand Centers', 'location': {'lat': 30.41937912038276, 'lng': 72.00372231241784}, 'placeId': 'ChIJrTLr-GyuEmsRBfy61i59si0', 'region': 'PK'}",(645) 727-7511 x62861,User,True
1959,2023-04-19T15:20:57.066Z,2023-05-24T20:12:02.766Z,Gaston20@hotmail.com,vRRvPNKmfdL29uUHgCfmBDqbSFwNIvDHbG2RbfYRj4K5ZAzA0n,Maritza,Streich,F,1-234-774-3090 x8863,"{'address': '9314 Wyman Knoll', 'location': {'lat': 31.674855208898055, 'lng': 59.63305397281306}, 'placeId': 'ChIJrTLr-GyuEmsRBfy61i59si0', 'region': 'PK'}",201-671-2065 x2930,User,True
5717,2023-03-07T05:58:28.815Z,2022-06-08T11:41:03.368Z,Eldred_Macejkovic92@hotmail.com,EZI1bD1KkbqoVW2BibrPL91fIgyD05CB6hwlnwhHbNEQ5SjEg1,Adelia,Muller,F,(728) 760-9275,"{'address': '23744 Quitzon Motorway', 'location': {'lat': 26.39098379386753, 'lng': 78.47485931873052}, 'placeId': 'ChIJrTLr-GyuEmsRBfy61i59si0', 'region': 'PK'}",1-703-716-7202,User,True
5253,2022-07-14T18:51:00.077Z,2022-12-05T19:55:51.372Z,Pink_Haley@gmail.com,DWbyciGD2dXJ2QPe1bpmxAdv49AmOUrGVas5p7R0ArneySdxGg,Evangeline,Nolan,F,(559) 899-1847,"{'address': '6817 Christelle Divide', 'location': {'lat': 19.623635518324026, 'lng': 69.93566358030182}, 'placeId': 'ChIJrTLr-GyuEmsRBfy61i59si0', 'region': 'PK'}",(288) 651-9583 x1298,User,True
7836,2022-10-10T03:59:51.281Z,2022-09-03T22:04:26.000Z,Hertha19@hotmail.com,ZWK1SXry0IkU0ZWaim2ab6w1yxW1oCHIgIPB1jJMtQLyfd4XrH,Jamarcus,Johnson,M,1-379-874-6920,"{'address': '37920 MacGyver Court', 'location': {'lat': 25.108712629882366, 'lng': 80.56701926143728}, 'placeId': 'ChIJrTLr-GyuEmsRBfy61i59si0', 'region': 'PK'}",(301) 692-3640 x374,User,True
6535,2022-11-21T18:36:10.433Z,2022-12-16T21:37:53.870Z,Destiney69@hotmail.com,ItXFaX0uTlMlreK6bfYd4Yt4sAZWXgft1irBlOhys0vWZbtLSv,Garrick,Weissnat,M,639-978-2941,"{'address': '7156 Maud Key', 'location': {'lat': 20.30851021453847, 'lng': 71.77685682258425}, 'placeId': 'ChIJrTLr-GyuEmsRBfy61i59si0', 'region': 'PK'}",884-601-2704 x041,User,True
4787,2023-02-06T09:49:33.591Z,2022-08-15T05:56:28.951Z,Bridgette.Keebler59@hotmail.com,Tga8BAOlJWO7PuSepFhuwLSk4lKjn3qNhMeOdQEppZNDOakyu4,Noe,Corwin,M,1-750-567-4508 x8818,"{'address': '56900 Auer Island', 'location': {'lat': 24.442880847516722, 'lng': 66.74028268077177}, 'placeId': 'ChIJrTLr-GyuEmsRBfy61i59si0', 'region': 'PK'}",413-651-2765,User,True
6227,2022-09-26T17:45:16.230Z,2023-04-06T18:28:32.286Z,Penelope18@hotmail.com,TXFp8eyjN2JpDz11tob1aYNuEQbhpGqlYahIlGiy88IpX9UFYg,Maribel,Cartwright,F,465-974-3779 x75564,"{'address': '3392 Thora Greens', 'location': {'lat': 25.782511846928895, 'lng': 69.4538968516963}, 'placeId': 'ChIJrTLr-GyuEmsRBfy61i59si0', 'region': 'PK'}",812-474-1727 x344,User,True
1993,2022-10-22T13:14:19.409Z,2022-06-02T19:07:21.046Z,Marlene_Hirthe38@gmail.com,khhyrZLP9uNH5nEv6kcN9dNBlvpQmDOK9Kxj1h5DYU7c4dcRCt,Ashtyn,Jakubowski,F,1-266-751-1658 x8305,"{'address': '8606 Bins Neck', 'location': {'lat': 12.691775742110222, 'lng': 65.96879068157205}, 'placeId': 'ChIJrTLr-GyuEmsRBfy61i59si0', 'region': 'PK'}",246-678-2652 x71300,User,True
5903,2022-12-19T03:44:52.596Z,2022-06-24T19:32:32.352Z,Arvid_Windler65@yahoo.com,hmITiPGtpeCqjC7iGVe0eIp6bQE9VJAheqHwshSCjcr5uT0d9h,Valerie,Senger,M,407-605-7373 x3593,"{'address': '895 Mayert Glens', 'location': {'lat': 11.319618269917116, 'lng': 71.2197031732619}, 'placeId': 'ChIJrTLr-GyuEmsRBfy61i59si0', 'region': 'PK'}",(482) 591-1082,User,True
571,2022-08-08T15:22:13.307Z,2022-10-05T09:41:38.958Z,Otto_Ziemann65@yahoo.com,aTfsmDY5bB6Pp0vzkd64kUrBxg1uGe55N9y940McvfdOeUB1ON,Loren,Baumbach,F,769-979-8730 x1601,"{'address': '978 Jefferey Rest', 'location': {'lat': 25.05469013435763, 'lng': 67.00927498602107}, 'placeId': 'ChIJrTLr-GyuEmsRBfy61i59si0', 'region': 'PK'}",361-799-4955 x4829,User,True
9235,2023-02-01T04:25:03.861Z,2023-01-04T12:08:11.265Z,Stacy.Jacobs@yahoo.com,UAZJSVDwcYdIkYXmU04H8x9xGuMIG3jUAUeAJiUHgpnpSZEIbH,Sonya,Stark,F,764.795.2117 x0301,"{'address': '3890 Karolann Via', 'location': {'lat': 26.16592492235452, 'lng': 67.65697669801511}, 'placeId': 'ChIJrTLr-GyuEmsRBfy61i59si0', 'region': 'PK'}",(514) 829-5422 x06417,User,True
591,2023-03-09T03:20:30.990Z,2022-12-22T21:13:27.803Z,Andres86@hotmail.com,hwKu3EsGWHYVB4rotd67YlQUckNNQgOwgARyyZ27JVFcMwFrnX,Mitchel,Gorczany,F,981.321.8870 x65045,"{'address': '3389 Hessel Course', 'location': {'lat': 26.49763770885069, 'lng': 67.57563004936128}, 'placeId': 'ChIJrTLr-GyuEmsRBfy61i59si0', 'region': 'PK'}",544.699.6271,User,True
3108,2022-07-02T21:14:43.280Z,2022-09-10T00:50:13.849Z,Kellie.Tromp@gmail.com,Awb5WzRx2xZW1JnprykwU5MidjhoJc6SALzxE4PybYDPwYsLh4,Jaylin,Wiegand,F,(678) 226-0437 x3236,"{'address': '979 Angus Parkways', 'location': {'lat': 26.014534351698654, 'lng': 78.37046286644136}, 'placeId': 'ChIJrTLr-GyuEmsRBfy61i59si0', 'region': 'PK'}",997-561-0149 x193,User,True
4141,2022-07-25T01:33:38.330Z,2022-10-07T04:28:49.696Z,Ocie15@yahoo.com,iXYCPQJjR5TEQMSjzWSlRwnpCnYwDCtXYBbbTHCcbGOky3BD2h,Harmon,Romaguera,M,994.406.9398 x122,"{'address': '35507 Clare Ford', 'location': {'lat': 35.337626950587776, 'lng': 65.0111164375412}, 'placeId': 'ChIJrTLr-GyuEmsRBfy61i59si0', 'region': 'PK'}",(987) 364-6351 x05579,User,True
9936,2022-06-08T21:44:25.239Z,2023-05-09T22:10:48.841Z,Kacey.Konopelski@yahoo.com,XAC4WWYg8l1ybr28tY1UR9MEBRwWNv6TOj2NseMv2nyMMI4LWF,Michel,Bogan,M,757.289.4457 x3567,"{'address': '99394 Carlie Branch', 'location': {'lat': 26.446787352896365, 'lng': 55.73073857519216}, 'placeId': 'ChIJrTLr-GyuEmsRBfy61i59si0', 'region': 'PK'}",(326) 483-9725 x3674,User,True
5380,2023-05-15T22:54:33.079Z,2023-01-11T12:10:11.768Z,Nettie_Altenwerth17@hotmail.com,fiU55AcaRoliLjWFzTHHZKb0DZiWO9qG1FWliAuaO1S3Fjid6r,Patrick,Haley,M,(565) 838-5098 x693,"{'address': '21539 Baylee Roads', 'location': {'lat': 23.764023059610437, 'lng': 65.70455513071602}, 'placeId': 'ChIJrTLr-GyuEmsRBfy61i59si0', 'region': 'PK'}",1-804-747-8501 x783,User,True
874,2022-10-02T12:54:26.254Z,2023-01-02T12:55:15.459Z,Blaze_Zemlak@hotmail.com,L0bM3VXYr1uCtwH2Mre86zfnsNU8SZGaG0hj8cuLtSGCSWJFst,Beth,Kunze,F,(538) 568-0690 x58293,"{'address': '568 Major Hollow', 'location': {'lat': 20.035201798045655, 'lng': 72.91259904926812}, 'placeId': 'ChIJrTLr-GyuEmsRBfy61i59si0', 'region': 'PK'}",398.217.8169 x89036,User,True
9190,2023-03-17T21:02:27.773Z,2023-04-19T17:29:43.533Z,Julien_Kassulke80@gmail.com,RSgWmnUI2aNHkwVMr432TyhugJRcMDHBQ8PSThBsfOalcnFqHx,Amya,Collins,F,510.563.9071 x007,"{'address': '38698 Braun Shoal', 'location': {'lat': 17.119914438946775, 'lng': 60.42376640692203}, 'placeId': 'ChIJrTLr-GyuEmsRBfy61i59si0', 'region': 'PK'}",525.743.4596 x946,User,True
3428,2022-11-24T03:29:35.420Z,2022-11-10T13:05:28.431Z,Haleigh50@yahoo.com,0qhyEe7RDQ2POWjc6Kdju1U15tA8ul59ZUQ2ntG4CyBjAYo5xw,Abelardo,Jones,M,698.221.1496 x2577,"{'address': '9999 Grimes Knolls', 'location': {'lat': 35.369523778203984, 'lng': 75.28350810508789}, 'placeId': 'ChIJrTLr-GyuEmsRBfy61i59si0', 'region': 'PK'}",232.320.4411 x29345,User,True
2420,2022-11-17T04:07:57.488Z,2023-02-13T04:09:20.258Z,Neal_Glover@yahoo.com,VeQRUwPcMQ2leUy8NQujneBifI8HcgvOXeESKKgK6gDI8Un7yh,Hilda,Swaniawski,M,708.654.7989 x405,"{'address': '10207 Wunsch Center', 'location': {'lat': 26.20176430364751, 'lng': 68.87102636500981}, 'placeId': 'ChIJrTLr-GyuEmsRBfy61i59si0', 'region': 'PK'}",617-599-9319 x511,User,True
9317,2023-05-09T20:47:24.601Z,2023-03-05T09:56:43.302Z,Fannie_Lueilwitz@gmail.com,PN15PXnL8QeFmWpRhNLXGuLKv5SnrkD1Of0DpXPdobU6kvJpO2,Yvonne,Schmeler,F,251-683-6584 x995,"{'address': '47570 Joannie Coves', 'location': {'lat': 19.06594053956166, 'lng': 67.14530928334261}, 'placeId': 'ChIJrTLr-GyuEmsRBfy61i59si0', 'region': 'PK'}",1-958-938-6616,User,True
3140,2022-09-01T22:43:28.751Z,2023-03-24T19:59:31.439Z,Saul.Murphy@gmail.com,G5R3UuhcWQ6lQrTYX3isNPbXlRefV5xwvorEI4pSJTI1ajPZ28,Margarete,Gibson,M,(617) 629-2815 x809,"{'address': '38862 Barrows Cliffs', 'location': {'lat': 29.960717161942796, 'lng': 65.27968617412228}, 'placeId': 'ChIJrTLr-GyuEmsRBfy61i59si0', 'region': 'PK'}",1-740-514-5827 x711,User,True
7148,2022-06-28T15:22:59.532Z,2022-08-18T18:58:45.403Z,Brooks59@gmail.com,jMdp0XVLLl0CDQj0ypFb4vq925D8ZHLuDKDtBeynaQrRLgByeB,Jason,Breitenberg,F,686-787-9406,"{'address': '7900 Gottlieb Radial', 'location': {'lat': 23.387472068611046, 'lng': 69.2598353924185}, 'placeId': 'ChIJrTLr-GyuEmsRBfy61i59si0', 'region': 'PK'}",863.218.6340 x0537,User,True
3913,2022-07-17T03:56:06.027Z,2023-01-29T13:40:31.786Z,Ladarius50@yahoo.com,NcHtbLwze2Fq6BfbjTiOWwJH4ArykGMou9opucHLP3ZF2FVbAD,Greyson,Lebsack,M,1-554-843-6037 x46617,"{'address': '2657 Erica Shoals', 'location': {'lat': 28.595749612707785, 'lng': 73.6628334093574}, 'placeId': 'ChIJrTLr-GyuEmsRBfy61i59si0', 'region': 'PK'}",401-947-3432 x4928,User,True
1170,2023-01-21T00:26:21.920Z,2022-06-15T13:28:11.457Z,Davonte81@gmail.com,67IA6Y3lEJnZELS0bs83qr9Go0kxQwzFg3VwIEbUFILaX5SXNk,Tyrel,Runolfsdottir,M,579-369-1205 x4321,"{'address': '5288 Beatty Extension', 'location': {'lat': 30.376428933735035, 'lng': 61.007150911215035}, 'placeId': 'ChIJrTLr-GyuEmsRBfy61i59si0', 'region': 'PK'}",723.331.2226 x9037,User,True
1676,2022-07-13T22:36:28.500Z,2023-01-13T08:38:11.223Z,Edd_Pfeffer@hotmail.com,8rXbVxpH6d43A8wvnVSi6YDIaK92fBLGdfWcyx59ZjvKFGZSAR,Geoffrey,Keebler,F,1-281-222-4518 x9118,"{'address': '5177 Kassulke Circles', 'location': {'lat': 22.428131972239555, 'lng': 67.53058238758649}, 'placeId': 'ChIJrTLr-GyuEmsRBfy61i59si0', 'region': 'PK'}",1-409-372-7182,User,True
5627,2022-10-13T15:20:13.733Z,2022-08-28T11:03:23.605Z,Litzy.Vandervort72@gmail.com,o1MeoG4PHrYal4Ds6NVvoyagqjAiVYdSxSAwqO1VkOycHvnRu8,Clifton,Bauch,F,(573) 495-7173,"{'address': '8450 Rodolfo Causeway', 'location': {'lat': 36.466654883646456, 'lng': 60.391622233870976}, 'placeId': 'ChIJrTLr-GyuEmsRBfy61i59si0', 'region': 'PK'}",(937) 867-6787 x1580,User,True
2691,2023-02-01T17:28:59.776Z,2022-06-18T23:14:18.643Z,Arvid68@hotmail.com,CTxEkHBY4e3WfdJuQvMuJ4lGUz1QJddFvu9HxUkfZjmLcSf3mP,Glenna,Wuckert,F,519.239.7643 x78854,"{'address': '10270 Toy Orchard', 'location': {'lat': 29.446977758845136, 'lng': 63.974415648478384}, 'placeId': 'ChIJrTLr-GyuEmsRBfy61i59si0', 'region': 'PK'}",469-558-4506 x10656,User,True
7325,2023-04-09T21:13:34.583Z,2023-02-23T00:10:22.572Z,Dell.Larson@yahoo.com,cZECyMbSMBq6xrpf0SdTN43zn6hYKOACQZnQfp3DdJfrpkjCWO,Eladio,Jacobi,F,(223) 430-3656,"{'address': '808 Rey Radial', 'location': {'lat': 24.68845989935026, 'lng': 62.38521596175633}, 'placeId': 'ChIJrTLr-GyuEmsRBfy61i59si0', 'region': 'PK'}",1-272-309-7752 x511,User,True
6293,2023-04-04T11:13:14.723Z,2022-09-18T22:20:42.758Z,Taryn_DAmore7@gmail.com,oXEcJZr9tUbuw6W836UVMcmwNma7Dx7DjZ341X7en9n0Qq1oNT,Marie,Bogisich,F,374-629-9705 x048,"{'address': '8590 Claudia Fall', 'location': {'lat': 21.63212858289085, 'lng': 78.79304275641516}, 'placeId': 'ChIJrTLr-GyuEmsRBfy61i59si0', 'region': 'PK'}",550.832.9051 x74112,User,True
4366,2023-02-07T22:55:27.699Z,2023-05-09T06:36:05.703Z,Kari6@gmail.com,dgvKZREibn7GU1Dy0afHHXpfV1rY3DRf0yqgnVHWBdpVI9jjEH,Candido,Kirlin,F,(335) 234-1758 x4883,"{'address': '6811 White Harbor', 'location': {'lat': 18.8339393505065, 'lng': 64.56979957411136}, 'placeId': 'ChIJrTLr-GyuEmsRBfy61i59si0', 'region': 'PK'}",1-202-855-1653 x2986,User,True
8339,2023-01-30T13:44:14.786Z,2023-04-04T15:14:45.371Z,Krystel.Bins89@gmail.com,KWtuCQA5wDPkO8N3FovK9eFUSuiogCgZ4j4cdqpxHKeZhzWLzs,Dino,Blick,M,498.581.5972 x03191,"{'address': '239 Bogan Junctions', 'location': {'lat': 18.853248110261426, 'lng': 66.99780202641921}, 'placeId': 'ChIJrTLr-GyuEmsRBfy61i59si0', 'region': 'PK'}",656.987.9940,User,True
5802,2023-01-25T11:19:06.373Z,2023-02-22T11:22:32.121Z,Ramiro67@hotmail.com,TJE6HsB8DjdVnSmNeZqZAUUqi3i0wrIZ9vM4dn4Q41WovdXxrL,Eriberto,Cartwright,M,862.294.5132 x02440,"{'address': '54401 Erik Brook', 'location': {'lat': 20.95170080340585, 'lng': 61.02932234897844}, 'placeId': 'ChIJrTLr-GyuEmsRBfy61i59si0', 'region': 'PK'}",634.869.0070 x6488,User,True
2204,2022-07-25T09:02:54.846Z,2022-09-15T14:05:30.218Z,Eli_Roberts-Heathcote@gmail.com,Oe6Tm3b8E0R0YyFeuxR91xruJyMz0D83yjXb1TE3GhbPMVwzGn,Ethyl,Mills,F,(802) 329-0508 x333,"{'address': '952 Everette Manor', 'location': {'lat': 24.806187173891825, 'lng': 68.29133155855186}, 'placeId': 'ChIJrTLr-GyuEmsRBfy61i59si0', 'region': 'PK'}",604.809.7506 x601,User,True
5682,2022-07-19T08:00:58.507Z,2022-07-09T05:16:11.750Z,Giuseppe71@hotmail.com,RrFbfjdgYB6gd3b10j3u2VgGexyoDF3MNoQt9IjL3FZnqdeL9W,Makenzie,O'Keefe,F,602.253.5317,"{'address': '9041 Tremblay Manors', 'location': {'lat': 34.46983853377883, 'lng': 69.51033548447435}, 'placeId': 'ChIJrTLr-GyuEmsRBfy61i59si0', 'region': 'PK'}",861-575-5071 x483,User,True
2830,2023-02-20T06:01:39.193Z,2022-12-28T00:32:07.243Z,Nikki.Heller@yahoo.com,UKVi4kZSfo4hzLYtJZU0TYNISdeM0y3OxMFhYSCZqdUjSP6sjE,Nicholaus,Ondricka,F,1-887-463-5289 x0909,"{'address': '300 Leuschke Loop', 'location': {'lat': 37.032252439951975, 'lng': 74.0769171769092}, 'placeId': 'ChIJrTLr-GyuEmsRBfy61i59si0', 'region': 'PK'}",410.898.7953 x670,User,True
1527,2022-07-19T22:28:06.018Z,2022-12-25T19:35:30.019Z,Charlene_Altenwerth@gmail.com,Dk4KIPMhOiYSOEx7XmslAtbKtM9FZ8leYFVGK6YMWqMOhrVwsk,Kristofer,Emard,F,1-597-576-8020,"{'address': '420 Ulices Mountains', 'location': {'lat': 14.777998440628432, 'lng': 66.57284234027543}, 'placeId': 'ChIJrTLr-GyuEmsRBfy61i59si0', 'region': 'PK'}",1-381-342-9509 x569,User,True
4478,2023-05-25T16:22:20.579Z,2023-05-28T00:09:26.367Z,Giuseppe15@yahoo.com,bB0HlI36UE618PAkXkpjQbUp74pCIKXgp1YhmB5wlNbRbEVYEE,Wilhelmine,Schmidt,F,(760) 386-2877,"{'address': '4261 Leffler Motorway', 'location': {'lat': 14.496184937699141, 'lng': 72.67108209497201}, 'placeId': 'ChIJrTLr-GyuEmsRBfy61i59si0', 'region': 'PK'}",1-261-336-8477 x49782,User,True
7492,2023-01-27T06:07:16.322Z,2022-06-06T23:55:54.446Z,Marielle_Bogisich55@yahoo.com,hHFjj2M1YQZ7bUjwfLYP4qCdrjKIhg0UKwyZgUadWWWdVKWuZ9,Alexandra,Stark,F,716-689-3003,"{'address': '25672 Nolan Grove', 'location': {'lat': 30.33040283116948, 'lng': 66.73082101912303}, 'placeId': 'ChIJrTLr-GyuEmsRBfy61i59si0', 'region': 'PK'}",1-421-838-4602,User,True
3773,2022-08-16T05:56:18.150Z,2023-05-04T01:53:24.738Z,Kailey77@hotmail.com,1XCA1stJFUtx3lna8DZOT0lstLdhsedMgZcqm0aIjdUvOZVpJ5,Jess,Kunde,F,380-388-9527 x390,"{'address': '4313 Clare Neck', 'location': {'lat': 22.564405579749803, 'lng': 64.71748821064386}, 'placeId': 'ChIJrTLr-GyuEmsRBfy61i59si0', 'region': 'PK'}",(826) 643-8595 x10549,User,True
7982,2023-04-08T06:05:18.949Z,2022-07-30T22:51:58.683Z,Charlene_Schaefer17@hotmail.com,JK9aWuCj87cgY1GvPpIRBZDXCbLag1JqPhHkl0o9sDK5Gsy1te,Elza,Koepp,M,476.561.9302 x532,"{'address': '398 Natalia Lodge', 'location': {'lat': 25.412530504690395, 'lng': 64.03186059585403}, 'placeId': 'ChIJrTLr-GyuEmsRBfy61i59si0', 'region': 'PK'}",(954) 868-1078 x19716,User,True
5780,2022-12-27T04:02:18.450Z,2022-08-21T03:31:45.763Z,Albert_Cartwright@hotmail.com,GaDwVLdCoXeGKJTXNUBBKep03vt2winl63wvd3KXI0AQucz67q,Newton,Jacobi,M,1-342-309-5341 x549,"{'address': '19173 Hudson Squares', 'location': {'lat': 23.643804466517015, 'lng': 65.43514450816951}, 'placeId': 'ChIJrTLr-GyuEmsRBfy61i59si0', 'region': 'PK'}",507.895.9550,User,True
5047,2023-03-02T03:45:13.005Z,2022-10-10T07:30:41.381Z,Jerome.Walter@hotmail.com,yJt3ZLImdyVBu5ZYm3NlMulLRMVjxwlgShULnelwM89T2rn4XZ,Carmine,Conn,F,1-806-539-9830 x9691,"{'address': '37995 Kerluke Trail', 'location': {'lat': 22.43497086232814, 'lng': 73.88073479297509}, 'placeId': 'ChIJrTLr-GyuEmsRBfy61i59si0', 'region': 'PK'}",(961) 421-0276 x4578,User,True
4814,2023-03-19T16:44:41.358Z,2022-06-02T11:05:32.153Z,Damaris40@yahoo.com,LUmWmqK3pmjjRm8qWnXGMku9omL2beA8HG6Fu7QLCq3j2nciXr,Demario,Welch,M,578.742.5653 x111,"{'address': '996 Kirlin Light', 'location': {'lat': 29.711514026323904, 'lng': 64.96344035412108}, 'placeId': 'ChIJrTLr-GyuEmsRBfy61i59si0', 'region': 'PK'}",969-821-5449 x20186,User,True
1437,2022-09-02T05:31:50.478Z,2022-07-14T06:53:52.804Z,Juanita.Harvey69@hotmail.com,bnW3coXX1ZnxkFzUvT01LHUvjpIf7wnlD7etYyJjSFbvaJoVr9,Leta,Thompson,M,(910) 976-7709 x2882,"{'address': '66258 Clarissa Roads', 'location': {'lat': 13.005349687000477, 'lng': 64.09287303115923}, 'placeId': 'ChIJrTLr-GyuEmsRBfy61i59si0', 'region': 'PK'}",596.749.4835 x0691,User,True
1389,2022-06-26T23:24:29.643Z,2022-06-17T20:09:48.572Z,Bridgette93@hotmail.com,8NXwTGDlIbR9zDTYQ7bTwrdEZAJ2VBp5JhAZfkNyOptIzwe7CN,Hope,Bednar,F,920.437.0348,"{'address': '68123 Monserrat Wall', 'location': {'lat': 24.570038635782126, 'lng': 59.23663426801181}, 'placeId': 'ChIJrTLr-GyuEmsRBfy61i59si0', 'region': 'PK'}",480-422-7811 x873,User,True
6816,2022-06-06T21:30:43.814Z,2023-05-11T22:18:48.910Z,Amelie50@gmail.com,TO4ok7VXaewGL5m6W4XaIzE6Rm9ZiNrBSnJNoUSRNSqHjRAVKc,Liliana,White,F,1-982-336-7121 x548,"{'address': '4742 Abernathy Extensions', 'location': {'lat': 29.579120481276792, 'lng': 74.00206159020115}, 'placeId': 'ChIJrTLr-GyuEmsRBfy61i59si0', 'region': 'PK'}",(937) 355-0727 x4835,User,True
8453,2022-11-02T05:40:05.309Z,2023-05-19T21:42:45.499Z,Laurence79@gmail.com,67VF6DdjSTkTjAazceJlEPRU93Csj5O5wRLGQIQ09svQFiwPOE,Collin,Kuhlman,F,984.577.4702,"{'address': '47682 Farrell Way', 'location': {'lat': 24.693233532385868, 'lng': 64.87940878175732}, 'placeId': 'ChIJrTLr-GyuEmsRBfy61i59si0', 'region': 'PK'}",(270) 396-8929 x869,User,True
277,2022-12-30T16:57:06.712Z,2022-06-20T13:50:42.763Z,Erica36@yahoo.com,xxiIjdT5suc0XPEMRjAXDft9neE4Fjr9dCQouUiRg3PzhgKbyx,Chris,Brakus,M,637.897.0234 x3638,"{'address': '265 Laura Rapids', 'location': {'lat': 22.42651607770727, 'lng': 66.20601305218884}, 'placeId': 'ChIJrTLr-GyuEmsRBfy61i59si0', 'region': 'PK'}",(999) 450-1784 x605,User,True
1578,2023-01-21T00:51:00.446Z,2022-10-22T19:20:28.486Z,Wanda_Little85@gmail.com,jBg0ZYN8TaudHzsUzdgSjOYLh5N9pzsOVhD1erqVjScYy3D9Bz,Max,Boyer,M,446.574.0513 x271,"{'address': '4800 Hintz Creek', 'location': {'lat': 24.86782693454578, 'lng': 60.595753654905025}, 'placeId': 'ChIJrTLr-GyuEmsRBfy61i59si0', 'region': 'PK'}",1-795-978-7913 x9062,User,True
5392,2022-06-09T10:00:27.377Z,2022-06-25T14:17:30.787Z,Jennings58@hotmail.com,yryJJpZzouKjnI0JhoGiGfhgKZcjezgLsNPW19jrkngMsKx4rA,Josefina,Heidenreich,F,1-729-229-3307 x670,"{'address': '328 Kristy Falls', 'location': {'lat': 36.2277864957032, 'lng': 65.53576075286105}, 'placeId': 'ChIJrTLr-GyuEmsRBfy61i59si0', 'region': 'PK'}",473.457.4188,User,True
97,2022-07-15T06:22:19.249Z,2022-11-11T11:26:53.188Z,Ellis_Pollich@gmail.com,dDZ4VaYH94WvG0rhr0fgpXG4KHliNasZxeHQ2qHUDP3tFWrj41,Deshaun,Franey,F,669-437-3558 x5365,"{'address': '4055 Beulah Manor', 'location': {'lat': 31.837093269906116, 'lng': 70.72335759209432}, 'placeId': 'ChIJrTLr-GyuEmsRBfy61i59si0', 'region': 'PK'}",766-468-8814 x88084,User,True
96,2022-12-18T14:31:19.866Z,2023-01-10T13:45:28.970Z,Lydia41@gmail.com,i5afRng25XmioYIlZWuI43VsS3gmI3twiDe8Ezl6e2DHkao2eu,Mya,Smith,M,1-912-386-9661,"{'address': '446 Lane Flats', 'location': {'lat': 21.762355418351486, 'lng': 68.76294095852234}, 'placeId': 'ChIJrTLr-GyuEmsRBfy61i59si0', 'region': 'PK'}",(304) 496-2316 x7526,User,True
7431,2023-03-04T13:02:52.455Z,2023-01-30T05:55:12.655Z,Carrie.Koepp@yahoo.com,IYPpeOEFMxT6kGbCuiBANhykqFd7aaainO37S6q72BNNxYyOWG,Isabelle,Yost,F,(927) 235-5637 x962,"{'address': '3897 Stoltenberg Garden', 'location': {'lat': 17.513940226918926, 'lng': 66.37105441874508}, 'placeId': 'ChIJrTLr-GyuEmsRBfy61i59si0', 'region': 'PK'}",(880) 676-8718 x15072,User,True
4287,2022-08-21T22:21:06.451Z,2022-09-16T00:08:07.960Z,Jaquan83@gmail.com,iKns0ui46EoyczQ9DlxstwhtaJrFR2LaujuD3TKjkU64FvMdTY,Fermin,Lockman,F,1-722-259-2169 x3348,"{'address': '83507 Kieran Run', 'location': {'lat': 31.18606890778107, 'lng': 60.675787896209954}, 'placeId': 'ChIJrTLr-GyuEmsRBfy61i59si0', 'region': 'PK'}",(589) 357-8844,User,True
4456,2022-10-20T05:28:48.472Z,2022-10-02T00:56:54.369Z,Cecile_Shields69@yahoo.com,QMwFtkLVO1FUACssUOt9y3kxwbuyZfAXzh7HGPOuqMDoQGwKGU,Antwan,Walter,M,898.711.1193 x095,"{'address': '34598 Daugherty Gateway', 'location': {'lat': 21.66372240782919, 'lng': 76.50248467854931}, 'placeId': 'ChIJrTLr-GyuEmsRBfy61i59si0', 'region': 'PK'}",1-754-908-2804 x13477,User,True
957,2022-12-20T07:04:46.426Z,2022-08-09T22:02:43.885Z,Keira89@hotmail.com,3opw8ciDZRaVRzG7uw5tn5ziRJtOV6q6Y7PVBX4HNIoaoNSTZZ,Rosalyn,Kling,M,(542) 797-3875 x57168,"{'address': '628 Stanton Pass', 'location': {'lat': 29.301872745280455, 'lng': 62.18087355725777}, 'placeId': 'ChIJrTLr-GyuEmsRBfy61i59si0', 'region': 'PK'}",529.910.7021 x1937,User,True
7157,2023-03-01T02:27:12.375Z,2022-09-24T19:51:24.585Z,Jaylon_Marvin@yahoo.com,hXAoOLTl8MzaHO7kpaINLQSb0qqFnMs8N1htPOf7lrh4JpfEeZ,Rickey,Hudson,F,344-810-5365 x11766,"{'address': '6163 Eldridge Prairie', 'location': {'lat': 31.753195289136272, 'lng': 62.779506730371395}, 'placeId': 'ChIJrTLr-GyuEmsRBfy61i59si0', 'region': 'PK'}",1-282-934-0449 x22549,User,True
1556,2023-04-16T18:23:18.220Z,2022-08-23T06:23:26.108Z,Anderson_Cummings16@yahoo.com,wayDGN0EiccKJvNPe5aAFkdDzoAyAuob0TPDebSXIdmoNbFmEm,Franz,Ritchie,M,(511) 440-4351 x35518,"{'address': '3973 Meaghan Inlet', 'location': {'lat': 34.38976918417774, 'lng': 62.467136032001235}, 'placeId': 'ChIJrTLr-GyuEmsRBfy61i59si0', 'region': 'PK'}",731-418-9849,User,True
9650,2022-07-02T02:40:26.065Z,2023-03-21T08:32:10.793Z,Maya_Buckridge@yahoo.com,oucPrxcPPmLWq2DaOWokcjsjgSnZTpMrMHJsJDnvaveX7N7BnF,Demarco,Schultz,M,1-438-285-6952 x044,"{'address': '9151 Leann Harbor', 'location': {'lat': 25.507459812832245, 'lng': 67.80996578861902}, 'placeId': 'ChIJrTLr-GyuEmsRBfy61i59si0', 'region': 'PK'}",492-479-6424 x3636,User,True
3206,2022-08-01T09:28:59.262Z,2022-06-15T00:35:49.744Z,Alvah_Emard17@yahoo.com,RytoeosTq0GpXMfAEQ8qQ6zzS2u1cBlPkQ5ZIeazRQZ49HxE3K,Carmen,Zulauf,F,(419) 938-7974 x446,"{'address': '120 Weissnat Fork', 'location': {'lat': 23.172040204938213, 'lng': 64.47049468424962}, 'placeId': 'ChIJrTLr-GyuEmsRBfy61i59si0', 'region': 'PK'}",(906) 520-6592 x39450,User,True
1758,2023-03-19T03:45:25.158Z,2023-04-30T17:54:25.108Z,Dewayne_Heaney59@hotmail.com,qWAynqbIEzJE6KZ977ACUCDT0jTTyaGoX9yewbCtqARAbGOMf8,Jermain,Gulgowski,M,(345) 386-2307,"{'address': '21799 Darron Manors', 'location': {'lat': 34.0967604379307, 'lng': 63.91427181857023}, 'placeId': 'ChIJrTLr-GyuEmsRBfy61i59si0', 'region': 'PK'}",1-542-372-5366 x6028,User,True
3038,2023-02-23T12:38:08.619Z,2023-02-01T12:16:12.962Z,Janis59@yahoo.com,p2BFrMKtlee2aHNKF0Q4VyWbTCLa6Tw61menmWqsAc1GDyB3EX,Jessica,Watsica,F,1-219-926-5304 x0614,"{'address': '461 Eugenia Fort', 'location': {'lat': 17.5502982620889, 'lng': 64.89612077705351}, 'placeId': 'ChIJrTLr-GyuEmsRBfy61i59si0', 'region': 'PK'}",1-610-290-5657,User,True
158,2022-07-03T22:32:05.694Z,2023-03-29T10:38:10.360Z,Hildegard48@yahoo.com,4kWBORkgljqmboW7woc9A0WD93H1KdBO0qYiWXIxe7pq6hESO5,Izabella,Keebler,M,1-742-763-4215,"{'address': '36207 Jordon Meadow', 'location': {'lat': 21.287437191063255, 'lng': 69.5823116915542}, 'placeId': 'ChIJrTLr-GyuEmsRBfy61i59si0', 'region': 'PK'}",1-594-676-8697 x45413,User,True
9077,2023-01-27T02:47:29.681Z,2022-12-20T21:19:11.406Z,Jefferey_Ondricka@hotmail.com,A8iQ4Qsd52zTD6GIjyUYNFaifq3ORyAdAn6cuuJtFvy67IJ3A7,Skylar,Buckridge,F,(515) 651-5770 x032,"{'address': '929 Turner Common', 'location': {'lat': 20.920798329644438, 'lng': 61.95182937181232}, 'placeId': 'ChIJrTLr-GyuEmsRBfy61i59si0', 'region': 'PK'}",295-547-9127,User,True
8548,2023-05-03T18:31:48.534Z,2022-08-26T07:40:39.834Z,Cindy_Auer@hotmail.com,adGzgzvIHiqid7ybmmM9ekLfTM5umobNDprXyWQlaxzb5AZ7mz,Carmel,Steuber,F,832-209-2711 x305,"{'address': '648 Bashirian Street', 'location': {'lat': 35.29326220826482, 'lng': 71.77378186336944}, 'placeId': 'ChIJrTLr-GyuEmsRBfy61i59si0', 'region': 'PK'}",407-985-5891 x748,User,True
4854,2023-03-05T23:11:26.016Z,2023-04-09T07:08:10.280Z,Cortney_White36@hotmail.com,C8aWTpQnmNvpbTTLkFgUaTm5FBwtVBgCsdDkf54JH7HoYFVHvA,Noelia,Kertzmann,F,1-697-587-0583,"{'address': '2630 Jan Gateway', 'location': {'lat': 16.617912068809467, 'lng': 72.41402312169316}, 'placeId': 'ChIJrTLr-GyuEmsRBfy61i59si0', 'region': 'PK'}",(617) 322-4759 x7098,User,True
2411,2022-07-17T09:07:36.856Z,2022-12-09T09:26:27.133Z,Deven.Gorczany@hotmail.com,5m0tpUyWJlrTG40R9ZTujWNrpVSNqBufqMvmNVJi2bfZdqvamU,Jairo,Trantow,M,363-507-0113 x9378,"{'address': '5314 Funk Groves', 'location': {'lat': 25.605304091203458, 'lng': 67.96215746309429}, 'placeId': 'ChIJrTLr-GyuEmsRBfy61i59si0', 'region': 'PK'}",462-240-9085 x1559,User,True
7263,2022-12-18T07:46:25.647Z,2022-09-08T06:47:52.848Z,Bria.Wisoky@hotmail.com,PefRcXDwNPrsKKWfDKacPdEQAxAZAITMYR14WiNgNfHgxLpkCL,Kelsie,Kuhn,F,(687) 202-4040,"{'address': '45903 Josianne Drive', 'location': {'lat': 23.319168664305742, 'lng': 66.35468847006962}, 'placeId': 'ChIJrTLr-GyuEmsRBfy61i59si0', 'region': 'PK'}",(566) 342-7691,User,True
5563,2022-11-20T23:52:25.360Z,2023-01-10T05:24:25.719Z,Santa44@hotmail.com,vhQ53e7C33HekqMt3HWzuIliybGUvDlQ2saCqDTgG0unR5fkbT,Diego,McCullough,F,923-591-8999 x5486,"{'address': '609 Okuneva Walk', 'location': {'lat': 25.47582274722257, 'lng': 67.46954099970912}, 'placeId': 'ChIJrTLr-GyuEmsRBfy61i59si0', 'region': 'PK'}",548.275.9766,User,True
7975,2023-05-27T09:47:49.419Z,2023-04-27T05:32:24.891Z,Johanna56@yahoo.com,KOkFZnV93P27h7psU5Sba3TkzwExc4c5jz5rlEujo7JA8VekGi,Talia,Herman,M,210-356-4327 x159,"{'address': '96444 Spencer Garden', 'location': {'lat': 19.638254380836493, 'lng': 62.05142595167365}, 'placeId': 'ChIJrTLr-GyuEmsRBfy61i59si0', 'region': 'PK'}",1-566-257-9512 x66480,User,True
8033,2023-01-26T01:20:55.733Z,2022-11-13T23:46:51.013Z,Bernice_Conn77@gmail.com,5izRxFqgjyes3wEPKnQAmUt68XPR1h36mMHXxzZD4YFxIYUr1I,Tamia,Dickens,F,(751) 340-4722 x05929,"{'address': '921 Bosco Courts', 'location': {'lat': 18.198856397709307, 'lng': 70.71872785994776}, 'placeId': 'ChIJrTLr-GyuEmsRBfy61i59si0', 'region': 'PK'}",662.531.2959 x14645,User,True
3912,2022-08-20T20:19:34.913Z,2022-07-06T21:38:18.959Z,Tomas_McClure@gmail.com,d0vmgsVIGDlUp8nUB1KW4xhtvnmoOcAtIm01jku6f9CtMdXVgL,Cheyenne,Cronin,F,335-274-9947 x2052,"{'address': '4277 Myrtle Fort', 'location': {'lat': 28.497482393929246, 'lng': 58.787337677577625}, 'placeId': 'ChIJrTLr-GyuEmsRBfy61i59si0', 'region': 'PK'}",615.894.8550 x55906,User,True
1543,2022-07-12T04:54:52.443Z,2023-02-13T15:46:46.117Z,Lulu31@gmail.com,SdvDoN0rhDCZg8WA8A0i5NUOOHe1jwtXxeHw7Wm3dVcdmP0MIk,Franco,DuBuque,M,1-346-845-4594 x70724,"{'address': '510 Trudie Avenue', 'location': {'lat': 24.586199653985364, 'lng': 67.69832872457391}, 'placeId': 'ChIJrTLr-GyuEmsRBfy61i59si0', 'region': 'PK'}",1-502-698-2790 x0244,User,True
5627,2022-06-09T09:02:52.048Z,2022-11-05T21:00:16.995Z,Claudia_Lebsack79@yahoo.com,8e4kMdO92xP2NLuOFZPkfEih0g1g4oQSEuRO3RKX26qCRTwAhI,June,Mitchell,F,(407) 596-7198 x1975,"{'address': '7624 Amir Islands', 'location': {'lat': 25.787291646149754, 'lng': 71.76765003784556}, 'placeId': 'ChIJrTLr-GyuEmsRBfy61i59si0', 'region': 'PK'}",(328) 994-5942,User,True
7377,2022-06-14T20:34:48.738Z,2023-03-30T05:00:04.048Z,Shawna_Greenholt@hotmail.com,olt1u1BGMihiBhil23gllVd9CpyocpvwWzPdxa3R4AMGPRerbP,Casimir,Sauer,M,253-776-2162 x8415,"{'address': '49154 Stefan Fords', 'location': {'lat': 24.204735622330112, 'lng': 63.855022968852154}, 'placeId': 'ChIJrTLr-GyuEmsRBfy61i59si0', 'region': 'PK'}",331.389.3942 x06229,User,True
9332,2022-09-04T02:08:07.259Z,2022-09-03T03:34:27.360Z,Derrick_Jones20@gmail.com,1sCugvB5dJolugQzdR1wkjahESeNaA6po45wItEv78EmW1NapJ,Jedediah,Nitzsche,M,(808) 322-2142 x8225,"{'address': '6750 Daugherty Springs', 'location': {'lat': 22.53542102681824, 'lng': 74.69834456262231}, 'placeId': 'ChIJrTLr-GyuEmsRBfy61i59si0', 'region': 'PK'}",557.737.6830 x03928,User,True
7854,2022-10-27T22:09:53.095Z,2022-06-10T05:32:25.811Z,Jacklyn6@yahoo.com,JWCZK2ElGjqKVyQxDMQrvL51DXEKrlXREN1PqdWoXQk68evL89,Evert,Williamson,F,361-421-8110,"{'address': '71453 Huel Coves', 'location': {'lat': 32.17607249971719, 'lng': 57.397002861889746}, 'placeId': 'ChIJrTLr-GyuEmsRBfy61i59si0', 'region': 'PK'}",1-383-792-7130 x40399,User,True
3863,2023-05-30T10:04:26.719Z,2023-04-15T00:21:19.767Z,Jean_Hoppe@yahoo.com,FOB0N2x15QOlpbRvBR7GvWbG6sy2r8Wv61rr13rkCCSqGzO5ZC,Isac,Sanford,F,685-833-9000 x32194,"{'address': '72234 Bret Walk', 'location': {'lat': 32.092601445785576, 'lng': 72.47269502489769}, 'placeId': 'ChIJrTLr-GyuEmsRBfy61i59si0', 'region': 'PK'}",1-700-789-8937 x806,User,True
3979,2022-12-23T10:04:57.099Z,2023-02-13T06:55:16.055Z,Mason.Abshire@gmail.com,8Xe1t8HlxAjZean5FYO5ZudDf5LnqrrWGK5gjSEISfJmuHjffu,Llewellyn,Deckow,F,331-304-0713 x024,"{'address': '34884 Stoltenberg Forks', 'location': {'lat': 29.57032149644885, 'lng': 71.61236537084233}, 'placeId': 'ChIJrTLr-GyuEmsRBfy61i59si0', 'region': 'PK'}",1-451-700-5885,User,True
5933,2023-03-16T02:49:47.222Z,2022-06-21T03:52:47.020Z,Darby59@hotmail.com,iCP1e2sRTWfTXXfpHA2S8BpCjV89UhygRqg9MQgodSmJUfeCMW,Louisa,Quitzon-Dibbert,M,(639) 725-1981 x382,"{'address': '7213 Prohaska Tunnel', 'location': {'lat': 26.109158975942293, 'lng': 75.40664793652968}, 'placeId': 'ChIJrTLr-GyuEmsRBfy61i59si0', 'region': 'PK'}",853-913-6096 x142,User,True
3197,2023-01-03T01:21:28.300Z,2023-05-02T21:40:59.951Z,Cierra_Pacocha@yahoo.com,HQXs3rAJyucHh4edZziWC73hA2bNmOdY04NLsct6lvD17IkCsP,Jorge,Johnson,M,(869) 404-8828 x553,"{'address': '5257 Eli Ridges', 'location': {'lat': 15.06172420636992, 'lng': 77.21812789238811}, 'placeId': 'ChIJrTLr-GyuEmsRBfy61i59si0', 'region': 'PK'}",245-337-5627 x1766,User,True
6720,2022-10-02T02:22:59.322Z,2022-09-30T02:30:55.142Z,Vernie45@yahoo.com,SkEr6wCRAJXmKaDqn0SiA5yn1fbOL8BU4QoTaRzFKDO4BZcDJU,Juana,Beatty,M,861.808.8869 x389,"{'address': '5058 Johnston Drives', 'location': {'lat': 27.674012592554135, 'lng': 53.210627675306796}, 'placeId': 'ChIJrTLr-GyuEmsRBfy61i59si0', 'region': 'PK'}",1-863-357-2203 x231,User,True
3454,2022-12-29T03:54:16.654Z,2022-08-09T07:38:33.983Z,Jared97@hotmail.com,Vdgh5i3t9cjYorBSVht91suMSbfu69xCtpG0CP4N1PdfYk6TEo,Jovany,Lynch,F,315.665.0970 x3344,"{'address': '548 Buster Land', 'location': {'lat': 21.636407743905473, 'lng': 73.88534400027982}, 'placeId': 'ChIJrTLr-GyuEmsRBfy61i59si0', 'region': 'PK'}",500.366.0314 x200,User,True
3324,2022-09-11T16:19:38.570Z,2022-06-14T15:12:01.390Z,Fredy86@gmail.com,dXXz7XevtVlMTqfdMKeu97tQ7NjB893yOivVQEkW85tnfyFXO1,Winfield,Schmidt,F,662.309.7653,"{'address': '780 Walter Land', 'location': {'lat': 17.135714478261633, 'lng': 66.44006312587248}, 'placeId': 'ChIJrTLr-GyuEmsRBfy61i59si0', 'region': 'PK'}",(803) 670-1583 x139,User,True
923,2022-08-30T12:13:49.741Z,2023-02-09T21:10:23.807Z,Emmet73@yahoo.com,pCDQhT7TFln0wjcGLuJXHlvDvgbtwibqgu9WbMc3YJlnAhOp5X,Brenda,Buckridge,M,889.872.1211 x341,"{'address': '63383 Anderson Fort', 'location': {'lat': 23.061916431604743, 'lng': 65.25471494262683}, 'placeId': 'ChIJrTLr-GyuEmsRBfy61i59si0', 'region': 'PK'}",(751) 321-3418 x06863,User,True
7325,2022-08-29T19:42:17.187Z,2023-02-07T23:29:46.565Z,Kristian20@yahoo.com,xQQu7pY7VTmYT7L9mdH4V08kZOYRrLt4ZC0XkmaMDzGkcAacT9,Webster,Wilkinson,M,1-786-816-6088,"{'address': '991 Kunde Cliff', 'location': {'lat': 24.92987768251012, 'lng': 69.61293960896069}, 'placeId': 'ChIJrTLr-GyuEmsRBfy61i59si0', 'region': 'PK'}",418.871.1042 x8511,User,True
7994,2022-09-29T06:02:24.172Z,2022-09-18T11:44:12.616Z,Hudson.Gulgowski69@gmail.com,ysSnUhnbkpBzHGazjBzkHXSCyBn3KvNjkGAniWjiF4rp3g7Z9t,Kiara,Marks,M,247.822.0810 x598,"{'address': '6424 Fritsch Parks', 'location': {'lat': 20.805899956954672, 'lng': 70.2539275889527}, 'placeId': 'ChIJrTLr-GyuEmsRBfy61i59si0', 'region': 'PK'}",273-956-5648,User,True
9933,2022-12-21T10:26:33.676Z,2022-06-29T19:33:58.207Z,Alan80@yahoo.com,PH28YSgSGBCGcDuOxvtgTeBCAJkVLWQgKAlhrvQfdGnmoNJgDw,Madeline,Lindgren,M,1-981-345-6982,"{'address': '337 Emard Stravenue', 'location': {'lat': 20.03924436074451, 'lng': 71.48933916474277}, 'placeId': 'ChIJrTLr-GyuEmsRBfy61i59si0', 'region': 'PK'}",547-473-7742 x228,User,True
62,2022-07-11T10:34:05.917Z,2023-02-02T11:45:12.323Z,Lonie_Witting@yahoo.com,7T1zEyvfN6I7XOw7L0zqrejmdDMfUZCT2LVuOHAiLldGPE5b9t,Blair,Kreiger,M,1-846-946-3759 x269,"{'address': '52150 Larkin Estate', 'location': {'lat': 21.710720405976595, 'lng': 64.5558857362148}, 'placeId': 'ChIJrTLr-GyuEmsRBfy61i59si0', 'region': 'PK'}",1-219-357-2430 x668,User,True
7821,2022-12-17T01:08:33.896Z,2023-04-22T23:39:59.047Z,Elta69@hotmail.com,ee9ZdFvLFNnkJgf7nLg66ts6SsF3nQBhgRtHleRnPiNnIdK3WR,Corine,Cormier,F,933-636-0215 x93200,"{'address': '5993 Schoen Estates', 'location': {'lat': 27.650555823324495, 'lng': 69.63159584093353}, 'placeId': 'ChIJrTLr-GyuEmsRBfy61i59si0', 'region': 'PK'}",248-592-3814 x037,User,True
7924,2022-08-17T17:59:39.718Z,2023-01-11T11:36:14.741Z,Liliane_Dooley@yahoo.com,vGGS6NXvR8IA3cZxgR449IEKvtWrPEKLbchHmBorlbEm5KvBwg,Renee,Davis,F,630.741.7535 x92805,"{'address': '881 Lucinda Grove', 'location': {'lat': 35.172095906548904, 'lng': 65.11734962201831},